,Unnamed: 0,Unnamed: 0.1,Unnamed: 0.1.1,address,business_id,city,latitude,longitude,name,postal_code,review_count,stars,state,HasTV,GoodForKids,Caters,NoiseLevel,RestaurantsTakeOut,BusinessAcceptsCreditCards,RestaurantsDelivery,WiFi,OutdoorSeating,BusinessParking,RestaurantsPriceRange2,RestaurantsGoodForGroups,BikeParking,WheelchairAccessible,RestaurantsReservations,weekday_close_after_23,weekend_close_after_23,weekend_hour_g11,caterslabel,tvslabel,kidlabel,delilabel,outdoorlabel,grouplabel,wheellabel,reservelabel,noiselabel,takeoutlabel,cardlabel,wifilabel,bikelabel
0,0,0,411,7800 Fairview Rd,nwxF9EKLOCpkScMF2utHDw,Charlotte,35.147358000000004,-80.809568,Ben & Jerry's,28226,19,3.5,NC,No info,No info,TRUE,No info,True,True,No info,No wifi,No info,1,2,No info,True,No info,No info,0,0,0,0,1,0,1,0,0,0,1,2,0,0,0.0,0
1,1,1,460,115 Meyran Ave,O-fYUqXjkwNvRfFnlUH6Iw,Pittsburgh,40.4409588,-79.9586082,Insomnia Cookies,15213,18,3.0,PA,No info,No info,No info,No info,True,True,No info,No wifi,No info,0,1,No info,True,No info,No info,1,1,1,1,1,1,1,1,0,0,1,2,0,0,0.0,0
2,2,2,1807,2362 Professor Ave,GhOWffUr9yDBxB5Ceqzc_Q,Cleveland,41.4800318,-81.68548829999997,Tremont Scoops,44113,89,4.0,OH,No info,No info,FALSE,No info,True,True,No info,No wifi,No info,1,1,No info,True,No info,No info,0,0,0,1,1,1,1,1,0,0,1,2,0,0,0.0,0
3,3,3,1897,10965 Lavender Hill Dr,I8T4Xsp3Wv7W-RJhsHrTDA,Las Vegas,36.1448691,-115.33309409999998,Menchie's Frozen Yogurt,89135,49,3.5,NV,No info,No info,FALSE,No info,True,True,No info,No wifi,No info,1,1,No info,True,TRUE,No info,0,0,0,1,0,1,0,1,0,0,1,2,0,0,0.0,0
4,4,4,1969,4845 S Fort Apache Rd,iX2c4IzH_L5F6FM5GD3SUQ,Las Vegas,36.10168999,-115.2981503,Tasty Crepes,89147,260,4.5,NV,TRUE,TRUE,TRUE,quiet,True,True,FALSE,Free wifi,FALSE,1,1,TRUE,True,No info,FALSE,0,0,0,0,0,0,1,1,0,0,1,3,0,0,1.0,0
5,5,5,2567,2120 E Craig Rd,viFP7j-WLzVhkCFXWGWQDw,Las Vegas,36.24029173,-115.1200517,Sonic Drive-In,89031,55,3.0,NV,FALSE,TRUE,FALSE,average,True,True,FALSE,No wifi,TRUE,1,1,TRUE,True,No info,FALSE,1,1,1,1,1,1,1,0,0,0,1,2,0,0,0.0,0
6,6,6,3135,11508 Providence Rd,Wlg9fruyWcoW3VuPuRDcpA,Charlotte,35.052984,-80.77077,Carvel,28277,27,3.5,NC,No info,No info,No info,No info,True,True,No info,No wifi,No info,1,1,No info,False,No info,No info,0,0,0,0,1,0,1,0,0,0,1,2,0,0,0.0,1
7,7,7,3827,5887 W Indian School Rd,D2DCpj35nBAJEXguPLaHyw,Phoenix,33.4939252,-112.18519270000002,Raspados El Zalate,85033,11,4.0,AZ,No info,No info,FALSE,No info,True,True,No info,No wifi,No info,0,1,No info,False,No info,No info,0,0,1,1,0,1,1,1,0,0,1,2,0,0,0.0,1
8,8,8,4369,5050 N 7th St,q0fX5CAXSURUOM_YDjHP3Q,Phoenix,33.5110791,-112.06539369999999,AZ Pops,85014,69,4.5,AZ,No info,No info,TRUE,No info,True,True,No info,Free wifi,No info,1,1,No info,True,TRUE,No info,0,0,0,0,1,0,1,0,0,0,1,2,0,0,1.0,0
9,9,9,5096,5541 Walnut St,99SN6hku1PToQ2E3-4h8CA,Pittsburgh,40.4518188,-79.93235870000002,Jitters Cafe,15232,61,4.0,PA,No info,No info,FALSE,No info,True,True,FALSE,Free wifi,TRUE,1,1,No info,True,No info,No info,0,0,1,1,1,1,1,0,0,0,1,2,0,0,1.0,0
10,10,10,6292,"9009 J M Keynes Dr, Ste 4",2232XZ-3ub4S9cmrHJSDFg,Charlotte,35.31057070000001,-80.74928609999998,Ninety's Ice Cream & Sandwiches,28262,164,4.5,NC,FALSE,TRUE,TRUE,quiet,True,True,FALSE,No wifi,TRUE,0,1,TRUE,True,No info,FALSE,0,0,0,0,1,0,1,0,0,0,1,3,0,0,0.0,0
11,11,11,6648,8502 Park Rd,ABeV2EzgMhyqyZGwXDBVdA,Charlotte,35.117297,-80.857399,TCBY,28210,11,4.0,NC,No info,No info,FALSE,No info,True,True,No info,No wifi,No info,0,1,No info,True,No info,No info,0,0,0,1,0,1,1,1,0,0,1,2,0,0,0.0,0
12,12,12,6925,2500 Dunavant St,_lpqjZAseSvoDxPN-_JnzQ,Charlotte,35.204712,-80.86684,King of Pops,28203,88,4.5,NC,No info,No info,TRUE,No info,True,True,No info,Free wifi,No info,1,1,No info,True,No info,No info,0,0,0,0,1,0,1,0,0,0,1,2,0,0,1.0,0
13,13,13,7007,10490 S Decatur Blvd,0FbFqMBLRGRRdZlGJeXjug,Las Vegas,35.999084,-115.2068864,Purple Penguin Snowcone Shack,89141,30,4.5,NV,No info,No info,FALSE,No info,True,True,FALSE,No wifi,No info,1,1,No info,True,TRUE,No info,0,0,0,1,1,1,1,0,0,0,1,2,0,0,0.0,0
14,14,14,7268,4727 E Bell Rd,HbzO-ZpnoR1hkOaygZPKYA,Phoenix,33.63823957,-111.9783571,Rita's Italian Ice,85032,66,4.0,AZ,No info,No info,TRUE,No info,True,True,No info,No wifi,No info,1,1,No info,True,TRUE,No info,0,0,0,0,0,0,1,1,0,0,1,2,0,0,0.0,0
15,15,15,8422,2647 W Glendale Ave,TBnB4iIU0pVKkAzN4T8xNg,Phoenix,33.5381782,-112.1334426,Neveria Chayos,85051,42,4.5,AZ,No info,TRUE,FALSE,No info,True,True,FALSE,No wifi,No info,1,1,TRUE,True,TRUE,FALSE,0,0,1,1,0,1,1,0,0,0,1,2,0,0,0.0,0
16,16,16,8460,"3663 Las Vegas Blvd, Ste 520",q2YXBzJ2S6jM8pbC23f83Q,Las Vegas,36.10887741,-115.1698762,Ben & Jerry's,89109,38,2.5,NV,No info,No info,FALSE,No info,True,True,No info,No wifi,No info,1,1,No info,False,No info,No info,0,0,1,1,1,1,1,0,0,0,1,2,0,0,0.0,1
17,17,17,9295,2301 E Sahara Ave,oIcGZlqwrKkyw_L6YAVYfw,Las Vegas,36.144818,-115.11687040000001,Sonic Drive-In,89104,29,2.5,NV,FALSE,TRUE,FALSE,average,True,True,FALSE,No wifi,TRUE,1,1,TRUE,True,No info,FALSE,1,1,1,1,1,1,1,0,0,0,1,2,0,0,0.0,0
18,18,18,9405,"3021 Charleston Blvd, Ste B",UkFMV7WGFfE_u8zyUkkuqg,Las Vegas,36.1591474,-115.10705619999999,La Flor de Michoacan,89104,66,4.0,NV,No info,No info,FALSE,No info,True,True,No info,No wifi,No info,1,1,No info,False,No info,No info,0,0,1,1,0,1,1,1,0,0,1,2,0,0,0.0,1
19,19,19,10720,5020 W Spring Mountain Rd,JKbovvbmbQKgb_v7KBpzPA,Las Vegas,36.1265945,-115.20955,Chamon Matcha Salon,89146,37,4.0,NV,No info,No info,No info,No info,True,True,No info,No wifi,FALSE,0,1,No info,False,No info,No info,0,0,0,1,1,1,1,1,0,0,1,2,0,0,0.0,1
20,20,20,11625,"3400 S Jones Blvd, Ste 3",E_7RIDFNQfxREnI_E5h0uA,Las Vegas,36.12808149,-115.224562,Matcha Cafe Maiko,89146,237,4.5,NV,No info,No info,FALSE,No info,True,True,No info,Free wifi,FALSE,0,1,No info,True,TRUE,No info,0,0,0,1,0,1,1,1,0,0,1,2,0,0,1.0,0
21,21,21,13006,"2045 E Camelback Rd, Ste A16",pV0eHAVd-guPjogXLnJ_Sg,Phoenix,33.5082758,-112.0372054,Nekter Juice Bar,85016,85,4.0,AZ,FALSE,TRUE,FALSE,quiet,True,True,FALSE,Free wifi,FALSE,0,2,TRUE,True,No info,FALSE,0,0,1,1,1,1,1,1,0,0,1,3,0,0,1.0,0
22,22,22,14353,3411 W Union Hills Dr,YhdWKWt3sx6YgMIILfh_Xw,Phoenix,33.65410875,-112.1323885,Sonic Drive-In,85027,20,3.0,AZ,FALSE,TRUE,FALSE,average,True,True,FALSE,No wifi,TRUE,0,1,TRUE,False,No info,FALSE,0,0,1,1,1,1,1,0,0,0,1,2,0,0,0.0,1
23,23,23,14663,"7800 Rea Rd, Ste C",#NAME?,Charlotte,35.0611922,-80.814551,Marble Slab Creamery,28277,40,3.5,NC,No info,No info,TRUE,No info,True,True,No info,Free wifi,No info,0,1,No info,True,No info,No info,0,0,0,0,1,0,1,0,0,0,1,2,0,0,1.0,0
24,24,24,14745,"801 N 2nd St, Ste 108",g38NqtZvSJ3lHt1APN13aw,Phoenix,33.4568082,-112.07071909999999,Snoh Ice Shavery - Downtown,85004,156,4.5,AZ,No info,No info,FALSE,No info,True,True,No info,Free wifi,TRUE,1,1,No info,True,TRUE,No info,0,0,0,1,1,1,1,0,0,0,1,2,0,0,1.0,0
25,25,25,14993,6800 Detroit Ave,5VXxZIMgoKRWbNa6x9kMfw,Cleveland,41.4838499,-81.731936,Sweet Moses Soda Fountain & Treat Shop,44102,365,4.5,OH,No info,No info,FALSE,No info,True,True,FALSE,No wifi,No info,1,2,No info,True,No info,FALSE,0,0,0,1,1,1,1,0,0,0,1,2,0,0,0.0,0
26,26,26,15200,5800 Forbes Ave,SpXBHrRfXJdocVkQa16zxg,Pittsburgh,40.43794243,-79.92283038,Cold Stone Creamery,15217,40,3.0,PA,No info,No info,TRUE,No info,True,True,TRUE,No wifi,No info,1,2,No info,True,No info,No info,0,0,1,0,1,0,0,0,0,0,1,2,0,0,0.0,0
27,27,27,15704,3315 S Valley View Blvd,8REOSFVMO-E1VrmLvY49Tg,Las Vegas,36.130093,-115.190646,Home-Made Ice Cream,89102,12,3.0,NV,FALSE,TRUE,FALSE,quiet,True,True,FALSE,Free wifi,FALSE,1,1,TRUE,True,FALSE,FALSE,0,0,0,1,1,1,1,1,0,1,1,3,0,0,1.0,0
28,28,28,15831,"21001 North Tatum Blvd, Ste 18-1096",P9KhwXBuHkJEif6TTJsGuQ,Phoenix,33.67467715,-111.9754527,Nekter Juice Bar,85050,81,3.0,AZ,FALSE,TRUE,TRUE,loud,True,True,FALSE,No wifi,TRUE,1,2,TRUE,True,TRUE,TRUE,0,0,1,0,1,0,1,0,0,0,0,1,0,0,0.0,0
29,29,29,16138,4318 Butler St,RqmORv3974ZDC6Zh4nSQwg,Pittsburgh,40.47107284,-79.95992774,Naturoll Creamery,15201,149,4.0,PA,No info,No info,FALSE,No info,True,True,FALSE,No wifi,No info,1,2,No info,True,FALSE,No info,0,0,0,1,1,1,1,0,0,1,1,2,0,0,0.0,0
30,30,30,17753,2009 Kenyon Rd,fl2TPNWrchkCbNEg0utjvw,Urbana,40.13320778,-88.1985949,Steak __ Shake,61802,17,2.5,IL,FALSE,TRUE,No info,average,True,True,FALSE,Free wifi,FALSE,1,1,TRUE,True,No info,FALSE,1,1,1,1,1,1,1,1,0,0,1,2,0,0,1.0,0
31,31,31,17806,333 E Roosevelt St,3saG51hM2M14G5f-QwhGhg,Phoenix,33.458465999999994,-112.06956799999999,Melt,85004,354,4.0,AZ,No info,No info,TRUE,No info,True,True,FALSE,Free wifi,No info,1,1,No info,True,TRUE,No info,1,1,1,0,1,0,1,0,0,0,1,2,0,0,1.0,0
32,32,32,19169,"9785 S Maryland Pkwy, Ste A1",64h5mGa2cJqLgoEwRfpDUQ,Las Vegas,36.0115413,-115.137115,Cold Stone Creamery,89183,79,2.5,NV,No info,No info,FALSE,No info,True,True,FALSE,No wifi,No info,0,1,No info,True,No info,No info,0,0,1,1,1,1,1,0,0,0,1,2,0,0,0.0,0
33,33,33,19288,1605 Linden Dr,91Y6ASRhkDz3mJG9ezGNiQ,Madison,43.0749778,-89.4137655,Babcock Hall Dairy Store,53706,70,4.5,WI,FALSE,TRUE,FALSE,average,True,True,FALSE,No wifi,TRUE,1,1,TRUE,True,No info,FALSE,0,0,0,1,1,1,1,0,0,0,1,2,0,0,0.0,0
34,34,34,19617,229 Atwood St,NV9ftiLhePO0bNE1z8y6qw,Pittsburgh,40.440542,-79.95649470000002,Love Yogurt,15213,47,4.0,PA,FALSE,TRUE,TRUE,average,True,True,FALSE,Free wifi,FALSE,1,1,TRUE,True,TRUE,FALSE,0,0,0,0,1,0,1,1,0,0,1,2,0,0,1.0,0
35,35,35,19965,1020 N 1st Ave,RA1Jchnz3uQDg4YVHckKXQ,Phoenix,33.4593921,-112.07433470000001,Fair Trade Cafe,85003,252,4.0,AZ,FALSE,TRUE,FALSE,average,True,True,FALSE,Free wifi,TRUE,1,1,TRUE,True,No info,FALSE,0,0,1,1,1,1,1,0,0,0,1,2,0,0,1.0,0
36,36,36,20140,2302 Atwood Ave,gtcvMLPePKKyXzSroO4J5A,Madison,43.0935537,-89.3483877,Chocolate Shoppe Ice Cream,53704,16,4.5,WI,No info,No info,FALSE,No info,True,True,No info,No wifi,TRUE,1,1,No info,True,No info,No info,0,0,0,1,1,1,1,0,0,0,1,2,0,0,0.0,0
37,37,37,20777,3799 Las Vegas Blvd S,qFGkw4ZORMdl-JKA51GahA,Las Vegas,36.102250700000006,-115.1699679,Häagen-Dazs,89109,17,4.0,NV,No info,No info,No info,No info,True,True,No info,No wifi,No info,1,1,No info,False,No info,No info,0,0,1,1,1,1,1,0,0,0,1,2,0,0,0.0,1
38,38,38,21946,801 Searles Ave,bLg02PdDwlQf4x-Ky2hsBw,Las Vegas,36.1847649,-115.13218390000002,Anderson Dairy,89101,14,3.5,NV,No info,TRUE,No info,No info,True,False,No info,No wifi,No info,1,1,No info,True,No info,No info,0,0,0,1,0,1,1,1,0,0,1,2,0,1,0.0,0
39,39,39,22563,1709 Murray Ave,Fozo0B-y42EhRMomR0K5vQ,Pittsburgh,40.4377485,-79.9228228,Waffallonia,15217,286,4.5,PA,FALSE,TRUE,TRUE,quiet,True,True,FALSE,No wifi,FALSE,1,1,FALSE,True,No info,FALSE,0,0,1,0,1,0,1,1,1,0,1,3,0,0,0.0,0
40,40,40,22825,2311 N 35th Ave,Bny78w8kQKHof_Xvqmj3wg,Phoenix,33.47339036,-112.13342920000001,Dulceria La Bonita Wholesale,85009,11,4.0,AZ,No info,No info,FALSE,No info,False,True,No info,No wifi,No info,1,1,No info,False,No info,No info,0,0,1,1,0,1,1,1,0,0,1,2,1,0,0.0,1
41,41,41,22879,7206 Mineral Point Rd,UROWdKGa1IQ19Jk4tExvVQ,Madison,43.0611479,-89.50678740000002,Culver's,53717,24,3.5,WI,TRUE,TRUE,FALSE,average,True,True,FALSE,Free wifi,TRUE,1,1,TRUE,True,No info,FALSE,0,0,1,1,0,1,1,0,0,0,1,2,0,0,1.0,0
42,42,42,23408,"7460 S Rainbow Blvd, Ste 110",_6UaHEnDDbUla3Pa3VVu3Q,Las Vegas,36.05318196,-115.24144550000001,Asia Creamery,89139,116,4.5,NV,No info,No info,FALSE,No info,True,True,No info,Free wifi,No info,1,1,No info,True,TRUE,No info,0,0,0,1,1,1,1,1,0,0,1,2,0,0,1.0,0
43,43,43,25043,"6300 South Blvd, Ste 100",Bp75bv1iyCy6yiHz3KKhyA,Charlotte,35.1493732,-80.87738509999998,La Michoacana,28217,20,4.0,NC,No info,No info,No info,No info,True,True,No info,Free wifi,No info,0,1,No info,False,No info,No info,0,0,0,1,1,1,1,0,0,0,1,2,0,0,1.0,1
44,44,44,25085,"9055 S Eastern Ave, Ste 1A",WQyGqfFKd-baBTVfZWzeTw,Las Vegas,36.02536389999999,-115.1190162,Yogurtland,89123,140,4.5,NV,No info,No info,FALSE,No info,True,True,No info,No wifi,No info,1,1,No info,True,No info,No info,0,0,1,1,1,1,1,0,0,0,0,2,0,0,0.0,0
45,45,45,25419,3200 S Las Vegas Blvd,8CNNs7jFv0yVptAvnga4xQ,Las Vegas,36.12758661,-115.1683575,Sticks & Shakes,89109,85,3.5,NV,No info,No info,FALSE,No info,True,True,No info,Free wifi,No info,1,2,No info,False,TRUE,No info,0,0,0,1,1,1,1,0,0,0,1,2,0,0,1.0,1
46,46,46,25840,3600 S Las Vegas Blvd,huOCKRwDvNqGX3KSzYawbw,Las Vegas,36.112133,-115.17679199999999,Cafe Gelato,89109,218,4.0,NV,FALSE,TRUE,FALSE,average,True,True,FALSE,Free wifi,FALSE,1,2,TRUE,False,No info,FALSE,0,0,1,1,1,1,1,1,0,0,1,2,0,0,1.0,1
47,47,47,25899,5685 Mountain Vista,clXf1Kkl5ynDMBhKS9a_Vw,Las Vegas,36.0861029,-115.0737979,Snow Vegas Shave Ice,89120,12,5.0,NV,No info,No info,FALSE,No info,True,True,No info,No wifi,No info,0,1,No info,True,TRUE,No info,0,0,0,1,0,1,1,1,0,0,1,2,0,0,0.0,0
48,48,48,26005,2535 S Las Vegas Blvd,6UI3dCIY6eM1eBOsnEVBuw,Las Vegas,36.14236939999999,-115.156034,The Perq,89109,104,3.5,NV,FALSE,FALSE,FALSE,average,True,True,FALSE,Free wifi,FALSE,1,2,FALSE,False,TRUE,FALSE,1,1,1,1,1,1,1,1,1,0,1,2,0,0,1.0,1
49,49,49,26022,"9711 S Eastern Ave, Ste H-1",#NAME?,Las Vegas,36.0126257,-115.11952579999999,La Flor de Michoacan,89183,48,4.5,NV,No info,No info,FALSE,No info,True,True,No info,No wifi,No info,0,1,No info,True,No info,No info,0,0,0,1,1,1,0,1,0,0,1,2,0,0,0.0,0
50,50,50,26098,"14126 Rivergate Pkwy, Ste 100",SYLlWyEfmkS0EPCv31-_cg,Charlotte,35.10285820000001,-80.9849921,Cold Stone Creamery,28273,40,2.5,NC,No info,No info,FALSE,No info,True,True,FALSE,No wifi,No info,0,2,No info,True,No info,No info,0,0,0,1,1,1,1,0,0,0,1,2,0,0,0.0,0
51,51,51,26689,14835 Ballantyne Village Way,oU8mRUY-XtaVR_RSgKZtTA,Charlotte,35.052751799999996,-80.8514933,TCBY,28277,12,3.5,NC,No info,No info,No info,No info,True,True,No info,Free wifi,No info,1,1,No info,True,No info,No info,0,0,0,1,0,1,1,1,0,0,1,2,0,0,1.0,0
52,52,52,26879,"2272 S Nellis Blvd, Ste 4",pd9zEKWDp0NKSj7ebRMr4w,Las Vegas,36.14518842,-115.0630874,Yogurtland,89142,19,4.0,NV,No info,TRUE,FALSE,No info,True,True,No info,No wifi,No info,0,1,No info,True,No info,No info,0,0,0,1,1,1,1,0,0,0,1,2,0,0,0.0,0
53,53,53,27190,"8156 S Tryon, Ste C",IicSYcYs9_prA7CyPJOugw,Charlotte,35.1441372,-80.9329131,Sweet Frog Premium Frozen Yogurt,28273,25,4.0,NC,No info,No info,FALSE,No info,True,True,No info,No wifi,No info,1,1,No info,True,No info,No info,0,0,0,1,0,1,1,0,0,0,1,2,0,0,0.0,0
54,54,54,27191,10625 N Tatum Blvd,t2rB8S27zl4Uzo16kiAQdg,Phoenix,33.583439899999995,-111.9768301,The Screamery,85028,62,4.5,AZ,No info,No info,No info,No info,True,True,No info,No wifi,No info,0,1,No info,False,TRUE,No info,0,0,0,1,1,1,1,0,0,0,1,2,0,0,0.0,1
55,55,55,27270,208 State St,10jP6njt3elD90gaHF1FBQ,Madison,43.074998,-89.38853399999998,Kilwins,53703,67,4.5,WI,No info,No info,FALSE,No info,True,True,No info,No wifi,No info,1,2,No info,True,No info,No info,0,0,0,1,1,1,1,0,0,0,1,2,0,0,0.0,0
56,56,56,27773,4860 S Eastern Ave,HqyAd-xCZxnJb3IlHCfL9w,Las Vegas,36.1005917,-115.11729609999999,Baskin-Robbins,89119,38,4.0,NV,FALSE,TRUE,TRUE,quiet,True,True,FALSE,No wifi,FALSE,1,1,TRUE,True,No info,FALSE,0,0,1,0,1,0,1,1,0,0,1,3,0,0,0.0,0
57,57,57,27875,1033 South Rainbow Blvd,lGiUZcTvuMdx28YMvqZ2vw,Las Vegas,36.1595495,-115.24538940000001,Fresh Boba Tea,89145,108,4.5,NV,No info,No info,FALSE,No info,True,True,No info,Free wifi,FALSE,1,1,No info,True,TRUE,No info,0,0,0,1,1,1,1,1,0,0,1,2,0,0,1.0,0
58,58,58,28293,9606 N 19th Ave,bIqpLN-_q1XSKdgbi5GKRw,Phoenix,33.57314757,-112.1001154,Sonic Drive-In,85021,20,3.0,AZ,FALSE,TRUE,FALSE,quiet,True,True,FALSE,No wifi,TRUE,0,1,TRUE,True,No info,FALSE,0,0,1,1,1,1,1,0,0,0,1,3,0,0,0.0,0
59,59,59,28332,1705 E Carson St,K8M3OeFCcAnxuxtTc0BQrQ,Pittsburgh,40.42909279999999,-79.9816954,The Milk Shake Factory,15203,236,4.0,PA,No info,No info,FALSE,No info,True,True,No info,No wifi,No info,1,2,No info,True,No info,No info,0,0,1,1,1,1,1,1,0,0,1,2,0,0,0.0,0
60,60,60,28437,6629 S Central Ave,5fM69_oyGPAtrvR7bSGVOg,Phoenix,33.385681,-112.0729321,Oasis Raspados,85042,24,4.0,AZ,No info,No info,TRUE,No info,True,True,No info,No wifi,No info,1,1,No info,True,No info,No info,0,0,0,0,0,0,1,0,0,0,1,2,0,0,0.0,0
61,61,61,28511,6168 Centre Ave,MdjZQiYwl8tljeAbx_fFZQ,Pittsburgh,40.4603479,-79.92289740000002,Menchie's Frozen Yogurt,15206,18,4.5,PA,No info,No info,No info,No info,True,True,No info,No wifi,No info,0,2,No info,True,No info,No info,0,0,0,1,1,1,1,0,0,0,1,2,0,0,0.0,0
62,62,62,28560,315 Camp Horne Rd,mYxBkLITB0xhGH2LutxlRg,Pittsburgh,40.51815637,-80.09171311,Custard's First Stand,15202,16,4.0,PA,No info,No info,No info,No info,True,True,No info,No wifi,No info,1,1,No info,True,No info,No info,0,0,0,1,1,1,1,0,0,0,1,2,0,0,0.0,0
63,63,63,28908,3340 E Flamingo Rd,NiQ_3tXqkoe6GaQ5w2sHaQ,Las Vegas,36.1174717,-115.1014805,Sonic Drive-In,89121,63,2.5,NV,FALSE,TRUE,FALSE,average,True,True,FALSE,No wifi,TRUE,0,1,TRUE,True,No info,FALSE,1,1,1,1,1,1,1,0,0,0,1,2,0,0,0.0,0
64,64,64,29190,5777 E Mayo Blvd,DE37j9FjAfysF5q7jQ507Q,Phoenix,33.65861893,-111.9565811,Mayo Clinic Hospital Cafeteria,85054,39,3.5,AZ,TRUE,TRUE,FALSE,average,True,True,FALSE,Free wifi,TRUE,1,1,TRUE,True,No info,FALSE,0,0,0,1,0,1,1,0,0,0,1,2,0,0,1.0,0
65,65,65,29465,"7910 S Rainbow Blvd, Ste 110",Hp8k_RpSIWSeJguyaQpfIw,Las Vegas,36.0443917,-115.24296310000001,Gelatology,89139,578,4.5,NV,No info,No info,TRUE,No info,True,True,FALSE,Free wifi,No info,1,1,No info,True,TRUE,No info,0,0,0,0,0,0,1,0,0,0,1,2,0,0,1.0,0
66,66,66,29764,1626 East Blvd,yWUBX9Pe6pzh1PjVj04UmQ,Charlotte,35.19897239999999,-80.84087109999999,Bad Daddy's Burger Bar,28203,505,4.0,NC,TRUE,TRUE,TRUE,average,True,True,FALSE,Free wifi,TRUE,1,2,TRUE,True,TRUE,FALSE,0,0,1,0,0,0,1,0,0,0,1,2,0,0,1.0,0
67,67,67,30077,555 S Midvale Blvd,UkfyZevcq5jmjNWMbLb1OQ,Madison,43.054623600000006,-89.4508969,Chocolate Shoppe Ice Cream,53711,26,3.5,WI,No info,No info,TRUE,No info,True,True,No info,No wifi,No info,1,1,No info,True,No info,No info,0,0,0,0,1,0,1,0,0,0,1,2,0,0,0.0,0
68,68,68,30910,3817 Milwaukee St,IPUGrf2xuClfxfBIA020kw,Madison,43.096807500000004,-89.3189585,Woodman's Market,53714,98,3.5,WI,No info,No info,FALSE,No info,False,False,No info,No wifi,No info,1,1,No info,True,No info,No info,1,1,1,1,1,1,1,1,0,0,1,2,1,1,0.0,0
69,69,69,31523,"3911 E Thomas Rd, Ste 4",bSja2oCB8VunhYpHaMj9cw,Phoenix,33.47968102,-111.9972905,Water And Ice,85018,25,4.0,AZ,No info,No info,FALSE,No info,True,True,No info,No wifi,No info,1,1,No info,True,No info,No info,0,0,1,1,0,1,1,0,0,0,1,2,0,0,0.0,0
70,70,70,33881,5523 Walnut St,kwMJ4KfhEcrk9jiMe-S6wQ,Pittsburgh,40.45166010000001,-79.93295529999997,Mercurio's,15232,318,4.0,PA,FALSE,TRUE,TRUE,average,True,True,FALSE,Free wifi,TRUE,1,2,TRUE,True,No info,FALSE,0,0,0,0,1,0,1,0,0,0,1,2,0,0,1.0,0
71,71,71,33943,"4360 Blue Diamond Rd, Suite 106",PJxqFL-xUmUaCe2STc5VRA,Las Vegas,36.03872970000001,-115.198596,Baskin-Robbins,89139,54,3.0,NV,No info,No info,TRUE,No info,True,True,No info,No wifi,No info,1,1,No info,True,No info,No info,0,0,1,0,1,0,1,1,0,0,1,2,0,0,0.0,0
72,72,72,34296,3790 Las Vegas Blvd S,EDHGSQVfjEWI_VCURz84eg,Las Vegas,36.1023786,-115.1745465,Häagen-Dazs,89109,11,4.5,NV,No info,No info,FALSE,No info,True,True,No info,No wifi,No info,0,1,No info,True,No info,No info,0,0,1,1,0,1,1,1,0,0,1,2,0,0,0.0,0
73,73,73,34979,"3611 Mt Holly-Huntersville Rd, Ste 201",yfKpKKBnz-oNSWfdvapO_A,Charlotte,35.32511829999999,-80.9463032,Coppa Coffee and Tea Cafe,28216,26,4.0,NC,No info,No info,FALSE,No info,True,True,FALSE,Free wifi,TRUE,1,1,No info,True,No info,No info,0,0,0,1,0,1,1,0,0,0,1,2,0,0,1.0,0
74,74,74,35283,7715 S Rainbow Blvd,F3oDNZGUJBIHHy4wQ5jRGw,Las Vegas,36.048266,-115.24358600000001,Dairy Queen,89113,93,2.0,NV,FALSE,TRUE,FALSE,average,True,True,FALSE,No wifi,FALSE,1,1,TRUE,False,No info,FALSE,0,0,1,1,1,1,1,1,0,0,1,2,0,0,0.0,1
75,75,75,35329,4210 Main St,lv4erkIq2VCIOGC46T8TsQ,Pittsburgh,40.464744,-79.95411659999998,Twisters Soft Serve Ice Cream,15224,20,3.5,PA,No info,No info,No info,No info,True,False,No info,No wifi,No info,1,1,No info,True,No info,No info,0,0,0,1,1,1,1,0,0,0,1,2,0,1,0.0,0
76,76,76,35399,3799 Las Vegas Blvd S,#NAME?,Las Vegas,36.10389158,-115.1693195,Blizz,89109,78,3.0,NV,No info,TRUE,No info,No info,True,True,FALSE,Free wifi,No info,1,2,TRUE,False,No info,FALSE,0,0,1,1,1,1,1,0,0,0,1,2,0,0,1.0,1
77,77,77,36248,7390 W Cheyenne Ave,OPiPeoJiv92rENwbq76orA,Las Vegas,36.21875267,-115.2568106,Sonic Drive-In,89129,83,3.0,NV,FALSE,TRUE,FALSE,average,True,True,FALSE,No wifi,TRUE,1,1,TRUE,True,No info,FALSE,1,1,1,1,1,1,1,0,0,0,1,2,0,0,0.0,0
78,78,78,36256,5501 Josh Birmingham Pkwy; Concourse D,qKdqQAgUepS1rF_FTtScgQ,Charlotte,35.2205406,-80.94113929999997,Pinkberry,28208,37,3.0,NC,No info,No info,No info,No info,True,True,No info,Free wifi,No info,1,2,No info,False,No info,No info,0,0,1,1,1,1,1,0,0,0,1,2,0,0,1.0,1
79,79,79,36322,"5549 E. Indian School Rd., #103",mwex6DE5txdjblHMlHUkhw,Phoenix,33.488545,-111.9613316,Zoyo Frozen Yogurt - Phoenix Arcadia,85018,15,4.0,AZ,No info,No info,No info,No info,True,True,No info,No wifi,No info,0,1,No info,True,No info,No info,0,0,1,0,1,0,1,0,0,0,1,2,0,0,0.0,0
80,80,80,37599,1224 W 6th St,OyfXVKjDy7VviVWkUxkk1g,Cleveland,41.50096477,-81.69991031,Insomnia Cookies,44113,27,3.5,OH,No info,No info,TRUE,No info,True,True,TRUE,No wifi,No info,0,2,No info,True,No info,No info,1,1,1,0,1,0,0,0,0,0,1,2,0,0,0.0,0
81,81,81,37660,6301 W Lake Mead Blvd,iu-KRfucMNM1j9-EstPGXg,Las Vegas,36.19542792,-115.230753,Sonic Drive-In,89108,41,2.0,NV,FALSE,TRUE,FALSE,average,True,True,FALSE,No wifi,TRUE,1,1,TRUE,True,No info,FALSE,0,0,1,1,1,1,1,0,0,0,1,2,0,0,0.0,0
82,82,82,37665,"1000 S Rampart Blvd, Ste 15",lWnG8JOua6jJ_STTLLstlg,Las Vegas,36.16036,-115.28968300000001,Ice Land Vegas,89145,86,4.5,NV,No info,TRUE,TRUE,No info,True,True,No info,Free wifi,TRUE,1,1,No info,True,TRUE,No info,0,0,0,0,1,0,1,0,0,0,1,2,0,0,1.0,0
83,83,83,37780,"7540 W Indian School Rd, Ste A4",MeSrAvgBNWHP2Js2--b6zw,Phoenix,33.4955059,-112.2221483,P.A.K Crepes & Coffee,85033,66,4.5,AZ,TRUE,TRUE,FALSE,average,True,True,FALSE,Free wifi,TRUE,0,1,TRUE,False,TRUE,FALSE,0,0,1,1,0,1,1,0,0,0,1,2,0,0,1.0,1
84,84,84,38158,"4906 W Lone Mountain Rd, Ste A105",6roYDeCtF1wcXfQ9iaRv7g,Las Vegas,36.247313399999996,-115.209694,Baskin-Robbins,89130,19,4.0,NV,No info,No info,TRUE,No info,True,True,No info,No wifi,No info,1,1,No info,True,No info,No info,0,0,1,0,1,0,1,0,0,0,1,2,0,0,0.0,0
85,85,85,38200,761 E Union Hls Dr,BWVMaAZS6DMVk_wU9jVc7w,Phoenix,33.6545061,-112.06327209999999,Dairy Queen,85024,28,2.5,AZ,FALSE,TRUE,FALSE,average,True,True,FALSE,No wifi,TRUE,0,1,TRUE,True,No info,FALSE,0,0,0,1,1,1,1,0,0,0,1,2,0,0,0.0,0
86,86,86,38260,"4512 E Washington Ave, Ste 14",8mtP3VJ8Ylvz-rEo_osWgg,Madison,43.1295597,-89.3092764,La Michoacana,53704,14,5.0,WI,No info,No info,No info,No info,True,True,No info,Free wifi,No info,1,1,No info,True,TRUE,No info,0,0,1,1,0,1,1,0,0,0,1,2,0,0,1.0,0
87,87,87,38671,1218 N Euclid Ave,37PlKoT60Qfo_G8V2NRfCQ,Pittsburgh,40.47603089,-79.91953768,LaScola's Italian Ice & Custard,15206,17,4.5,PA,No info,No info,FALSE,No info,False,True,No info,Free wifi,No info,0,2,No info,True,No info,No info,0,0,0,1,1,1,1,0,0,0,1,2,1,0,1.0,0
88,88,88,39254,2531 Monroe St,RmwfJrR4__hd5Scae5qsTw,Madison,43.0576515,-89.42761709999998,Michael's Frozen Custard,53711,72,3.5,WI,FALSE,TRUE,FALSE,average,True,True,FALSE,No wifi,TRUE,1,1,TRUE,True,No info,FALSE,0,0,1,1,1,1,1,0,0,0,1,2,0,0,0.0,0
89,89,89,39547,4809 N 75th Ave,UUyAGY5-6SbMfS7Iun5AGg,Phoenix,33.5079943,-112.220134,Dairy Queen,85033,14,2.0,AZ,No info,No info,No info,No info,True,True,No info,Free wifi,No info,0,1,No info,True,No info,No info,0,0,0,1,1,1,1,1,0,0,1,2,0,0,1.0,0
90,90,90,39626,1726 Fordem Ave,gOIVkoHTt2xL83dgyM0tuw,Madison,43.0947001,-89.363672,Chocolate Shoppe Ice Cream,53704,13,4.0,WI,No info,No info,No info,No info,True,True,No info,No wifi,No info,1,1,No info,True,No info,No info,0,0,0,1,0,1,1,1,0,0,1,2,0,0,0.0,0
91,91,91,40541,3950 Las Vegas Blvd S,PSMJesRmIDmust2MUw7aQA,Las Vegas,36.09342097,-115.1761449,Yogurt In,89119,97,2.5,NV,FALSE,TRUE,FALSE,No info,True,True,FALSE,No wifi,FALSE,1,2,TRUE,False,No info,FALSE,1,1,1,1,1,1,1,1,0,0,1,2,0,0,0.0,1
92,92,92,40558,3431 N Rancho,yGXKMV1omio1I_3qNLdtAA,Las Vegas,36.2206412,-115.21612590000001,Sonic Drive-In,89130,27,3.0,NV,FALSE,TRUE,FALSE,average,True,True,FALSE,No wifi,TRUE,0,1,TRUE,True,No info,FALSE,1,1,1,1,1,1,1,0,0,0,1,2,0,0,0.0,0
93,93,93,40621,1336 Drake St,1ZkcNwQpIESg8LuAHzye6Q,Madison,43.062774,-89.408866,ZuZu Cafe & Market,53715,66,3.5,WI,FALSE,TRUE,No info,quiet,True,True,FALSE,Free wifi,TRUE,1,1,TRUE,True,No info,FALSE,0,0,0,1,1,1,1,0,0,0,1,3,0,0,1.0,0
94,94,94,40657,20230 Lorain Rd,RQ_nzDzcc7pxYsfh6SKNRQ,Cleveland,41.449174,-81.8440587,Webers Premium Custard & Ice Cream,44126,29,4.5,OH,No info,No info,No info,No info,True,True,No info,No wifi,No info,1,1,No info,True,No info,No info,0,0,0,0,1,0,1,0,0,0,1,2,0,0,0.0,0
95,95,95,41322,"1304 E Chandler Blvd, Ste 104",Hw-yFY8Fz8HOvY6I5l7Ljg,Phoenix,33.3063767,-112.0550425,Yoasis,85048,57,4.0,AZ,TRUE,TRUE,FALSE,average,True,True,FALSE,Free wifi,TRUE,1,1,TRUE,True,No info,FALSE,0,0,0,1,0,1,1,0,0,0,1,2,0,0,1.0,0
96,96,96,41549,2737 E Carson St,DB1fdI2UGujYViApLsFLBg,Pittsburgh,40.4267356,-79.9664172,Sincerely Yogurt,15203,13,3.5,PA,No info,No info,No info,No info,True,True,No info,Free wifi,No info,1,2,No info,True,No info,No info,0,0,0,1,0,1,1,1,0,0,1,2,0,0,1.0,0
97,97,97,41588,"7325 S Rainbow Blvd, Ste 110",0f1ZKmUAcuI7Xz3GLWnsNw,Las Vegas,36.0551922,-115.2434261,Creamistry,89139,60,4.0,NV,No info,No info,TRUE,No info,False,True,No info,Free wifi,No info,0,1,No info,True,TRUE,No info,0,0,0,0,1,0,1,0,0,0,1,2,1,0,1.0,0
98,98,98,41681,"6530 N Buffalo Dr, Ste 150",rVi34tu0bITsoxMMT9QhUw,Las Vegas,36.2807229,-115.2653063,Smoothie King,89131,96,2.5,NV,No info,No info,TRUE,No info,True,True,No info,Free wifi,No info,1,2,No info,True,No info,No info,0,0,1,0,1,0,1,1,0,0,1,2,0,0,1.0,0
99,99,99,42135,3715 Forbes Ave,jTlcLfsSDGnHcbjL1aD9Zw,Pittsburgh,40.441467700000004,-79.9574362,Forbes Gyro,15213,55,3.5,PA,FALSE,TRUE,FALSE,average,True,True,TRUE,No wifi,FALSE,1,1,TRUE,True,No info,FALSE,1,1,1,1,1,1,0,1,0,0,1,2,0,0,0.0,0
100,100,100,42338,2205 S Rainbow Blvd,MJXL27XNMm15NQ-MGP8jhw,Las Vegas,36.1470686,-115.2434956,Dairy Queen,89146,35,2.5,NV,TRUE,TRUE,No info,No info,True,True,FALSE,No wifi,FALSE,0,1,TRUE,False,No info,FALSE,0,0,0,1,0,1,1,1,0,0,1,2,0,0,0.0,1
101,101,101,42745,505 E Oakey Blvd,#NAME?,Las Vegas,36.15146586,-115.15155390000001,Luv It Frozen Custard,89104,707,4.0,NV,No info,No info,FALSE,No info,True,True,No info,Paid wifi,No info,1,1,No info,True,No info,No info,0,0,0,1,0,1,1,0,0,0,1,2,0,0,,0
102,102,102,43701,4806 Liberty Ave,Q8b36PEPL61nxeQDcLBV7g,Pittsburgh,40.46040026,-79.94684553,Scoops in Bloomfield,15224,47,4.0,PA,No info,No info,FALSE,No info,True,True,No info,No wifi,No info,1,1,No info,True,No info,No info,0,0,0,1,1,1,1,1,0,0,1,2,0,0,0.0,0
103,103,103,44318,"5020 Spring Mountain Rd, Ste 3",VHZPbCbIPHEkKOotdCTiow,Las Vegas,36.12674264,-115.20941140000001,Milkywave,89146,735,4.5,NV,No info,No info,TRUE,No info,True,True,No info,No wifi,No info,1,1,No info,False,TRUE,No info,0,0,0,0,0,0,1,0,0,0,1,2,0,0,0.0,1
104,104,104,45044,"Bally's Hotel Casino, 3645 Las Vegas Blvd S",tN1_mcpulkykiecApuYlTA,Las Vegas,36.114222399999996,-115.17085049999999,Evening Call,89109,26,4.5,NV,TRUE,No info,No info,average,True,True,No info,Paid wifi,FALSE,1,2,TRUE,True,No info,FALSE,1,1,1,1,0,1,1,1,0,0,1,2,0,0,,0
105,105,105,45102,"6446 N Durango Dr, Ste 140",ZK4LvZ2n3uD5kR6tp6hsZQ,Las Vegas,36.2780439,-115.28713859999999,Chill Haus,89149,116,4.5,NV,No info,No info,FALSE,No info,True,True,No info,Free wifi,FALSE,1,1,No info,False,TRUE,No info,0,0,0,1,1,1,1,1,0,0,1,2,0,0,1.0,1
106,106,106,45335,748 E Mcdowell Rd,FIsikYUtIBJ0BKT_Ig-GhQ,Phoenix,33.466177,-112.063227,Sonic Drive-In,85006,26,3.0,AZ,FALSE,TRUE,FALSE,average,True,True,FALSE,No wifi,TRUE,1,1,TRUE,True,No info,FALSE,0,0,1,1,1,1,1,0,0,0,1,2,0,0,0.0,0
107,107,107,45365,1149 Evergreen Ave,Nu8xtxng4PKFQV1CBLeHgA,Pittsburgh,40.4928468,-79.9748057,Stickler's Ice Pops,15209,12,5.0,PA,No info,No info,TRUE,No info,False,True,FALSE,No wifi,No info,0,1,No info,False,FALSE,No info,0,0,0,0,0,0,1,1,0,1,1,2,1,0,0.0,1
108,108,108,45585,"3708 Las Vegas Blvd S, Level 2, Eastside Tower",XQETjKH84gxDrAiz2lH7Wg,Las Vegas,36.109951,-115.175393,Milk Bar Las Vegas,89109,759,3.5,NV,No info,No info,FALSE,No info,True,True,FALSE,No wifi,FALSE,1,2,No info,True,No info,No info,1,1,1,1,0,1,1,1,0,0,1,2,0,0,0.0,0
109,109,109,45658,4212 Forbes Ave,Oy9xDxD-JtUzSurhOhboLg,Pittsburgh,40.44312168,-79.95314683,Waffallonia,15260,67,4.5,PA,FALSE,TRUE,FALSE,average,True,True,FALSE,No wifi,TRUE,1,1,TRUE,True,No info,FALSE,0,0,0,1,1,1,1,0,0,0,1,2,0,0,0.0,0
110,110,110,45919,4260 W Flamingo Rd,On8O41uCKj1GfF1Bt4S2Lg,Las Vegas,36.11603285,-115.1973662,Sonic Drive-In,89103,203,3.0,NV,FALSE,TRUE,FALSE,average,True,True,FALSE,No wifi,TRUE,1,1,TRUE,True,No info,FALSE,1,1,1,1,1,1,1,0,0,0,1,2,0,0,0.0,0
111,111,111,45976,4751 E Warner Rd,1JmSxEQZQn1AitoNHxvHBQ,Phoenix,33.33048237,-111.981229,Dairy Queen,85044,34,3.0,AZ,FALSE,TRUE,TRUE,average,True,True,FALSE,No wifi,TRUE,1,1,TRUE,False,No info,FALSE,0,0,1,0,1,0,1,0,0,0,1,2,0,0,0.0,1
112,112,112,46599,1867 W 25th St,xfCgxY_SQfzxFsQjNiLJEQ,Cleveland,41.485917,-81.704254,Mitchell's Homemade Ice Cream - Cleveland,44113,318,5.0,OH,No info,No info,TRUE,No info,True,True,No info,No wifi,No info,1,1,No info,True,TRUE,No info,0,0,1,0,1,0,1,0,0,0,1,2,0,0,0.0,0
113,113,113,47022,6250 State Rd,IVBviNFlrVuQD42yPUnK7Q,Cleveland,41.39391889,-81.71076084,Honey Hut Ice Cream Shoppe,44134,34,5.0,OH,No info,No info,FALSE,No info,True,True,No info,No wifi,No info,1,1,No info,True,No info,No info,0,0,0,1,1,1,1,0,0,0,1,2,0,0,0.0,0
114,114,114,47453,"111 N Nellis Blvd, Ste 140",bKkg_SW-lWU2XDNVodksOg,Las Vegas,36.16207632,-115.06250020000002,Menchie's Frozen Yogurt,89110,41,4.5,NV,No info,No info,TRUE,No info,True,True,No info,Free wifi,No info,1,1,No info,True,TRUE,No info,0,0,0,0,0,0,1,0,0,0,1,2,0,0,1.0,0
115,115,115,47557,"9500 S Eastern Ave, Ste 110",gHGRzRa5qb577oWHAO7xew,Las Vegas,36.01647123,-115.11722479999999,Rolled Ice Cream,89123,191,4.0,NV,No info,No info,TRUE,No info,True,True,No info,Free wifi,No info,1,1,No info,True,TRUE,No info,0,0,0,0,1,0,1,0,0,0,1,2,0,0,1.0,0
116,116,116,48059,412 Perry Hwy,ynKAUSYi3c8M-rkVJI1PcQ,Pittsburgh,40.518468,-80.03161170000001,DiPietro's,15229,48,3.5,PA,TRUE,TRUE,FALSE,average,True,True,TRUE,No wifi,FALSE,1,2,TRUE,True,No info,TRUE,0,0,0,1,0,1,0,1,0,0,0,2,0,0,0.0,0
117,117,117,48448,11607 Euclid Ave,q4KI2aUkrCnje3jqKBMULg,Cleveland,41.510915000000004,-81.603487,Piccadilly Artisan Creamery,44106,82,4.5,OH,No info,No info,TRUE,No info,True,True,No info,Free wifi,No info,1,2,No info,True,No info,No info,0,0,0,0,1,0,1,0,0,0,1,2,0,0,1.0,0
118,118,118,48820,4127 Butler St,D_O7ebohrbgwRmATmVwN8Q,Pittsburgh,40.47011576,-79.96089111,FRIO Creamery,15201,19,5.0,PA,No info,No info,TRUE,No info,True,True,No info,No wifi,No info,0,1,No info,True,TRUE,No info,0,0,0,0,1,0,1,0,0,0,1,2,0,0,0.0,0
119,119,119,48897,9809 S Eastern Ave,hojZyJk1Wf2UE2CpG7cgIg,Las Vegas,36.01107788,-115.1193237,Freddy's Frozen Custard & Steakburgers,89183,384,4.0,NV,FALSE,TRUE,FALSE,average,True,True,FALSE,Free wifi,FALSE,1,1,TRUE,True,TRUE,FALSE,0,0,0,1,1,1,1,1,0,0,1,2,0,0,1.0,0
120,120,120,49498,"7377 S Jones Blvd, Ste 115",-95mbLJsa0CxXhpaNL4LvA,Las Vegas,36.055251,-115.225806,The Perfect Scoop & Boba Tea,89139,688,3.5,NV,No info,No info,TRUE,No info,True,True,FALSE,Free wifi,TRUE,1,1,No info,False,No info,No info,1,1,1,0,0,0,1,0,0,0,1,2,0,0,1.0,1
121,121,121,49894,"875 South Grand Central Pkwy, Unit 1258",OQUJBH55AH8rm-eR7X-CrQ,Las Vegas,36.16524866,-115.1571912,Amorino Gelato,89106,90,4.0,NV,No info,No info,FALSE,No info,True,True,No info,Free wifi,No info,1,2,No info,False,No info,No info,0,0,1,1,1,1,1,1,0,0,1,2,0,0,1.0,1
122,122,122,50374,4231 W Dunlap Ave,ortVZ6ZUTK7CR41B7AwtXQ,Phoenix,33.5672452,-112.14978810000001,Dairy Queen,85051,26,2.5,AZ,FALSE,TRUE,No info,No info,True,True,FALSE,No wifi,FALSE,0,1,TRUE,True,No info,FALSE,0,0,1,1,1,1,1,1,0,0,1,2,0,0,0.0,0
123,123,123,50487,"475 E Bell Rd, Ste 170",LdSIXJeWpK5u8tq-nKxQ1w,Phoenix,33.6399201,-112.06696570000001,Yogurtini,85022,136,4.0,AZ,No info,No info,TRUE,No info,True,True,FALSE,Free wifi,No info,1,1,No info,True,No info,No info,1,1,1,0,0,0,1,0,0,0,0,2,0,0,1.0,0
124,124,124,50679,"9820 Rea Rd, Ste B",7i_FVSJQle6cQWTZnFyCrQ,Charlotte,35.03482646,-80.80558689,Cold Stone Creamery,28277,21,4.0,NC,No info,No info,TRUE,No info,True,True,FALSE,No wifi,No info,0,2,No info,True,No info,No info,0,0,0,0,1,0,1,1,0,0,1,2,0,0,0.0,0
125,125,125,51284,2795 Saw Mill Run Blvd,rzByiKaj-bLeLz-zKNBQdg,Pittsburgh,40.378647799999996,-79.989968,Dairy Queen,15227,19,2.5,PA,FALSE,TRUE,FALSE,average,True,True,FALSE,No wifi,FALSE,1,1,TRUE,True,No info,FALSE,0,0,0,1,1,1,1,1,0,0,1,2,0,0,0.0,0
126,126,126,51409,1139 E Glendale Ave,iObLvZHRZ0RLTQOu-swDgA,Phoenix,33.53797728,-112.0569679,Zoyo Neighborhood Yogurt,85020,78,4.0,AZ,No info,No info,FALSE,No info,True,True,No info,Free wifi,No info,1,1,No info,True,No info,No info,0,0,1,1,0,1,1,0,0,0,1,2,0,0,1.0,0
127,127,127,51983,3645 South Las Vegas Blvd,lzQxNWlUVXJM2uqBeZafaQ,Las Vegas,36.11432186,-115.1708663,Blizz Frozen Yogurt - Bally's Hotel & Casino,89109,12,3.0,NV,TRUE,TRUE,No info,No info,True,True,FALSE,No wifi,FALSE,0,1,TRUE,True,No info,TRUE,0,0,1,1,0,1,1,1,0,0,0,2,0,0,0.0,0
128,128,128,52933,3900 Las Vegas Blvd S,_WEZNXybW8cu1T1KAiY08w,Las Vegas,36.09668477,-115.17688999999999,Blizz Frozen Yogert & Desserts,89119,35,2.5,NV,No info,No info,No info,No info,True,True,No info,No wifi,No info,0,2,No info,False,No info,No info,0,0,0,1,1,1,1,0,0,0,1,2,0,0,0.0,1
129,129,129,53023,"1780 N Buffalo Dr, Ste 107",Cf6fac73iYBXwkul-lm4vw,Las Vegas,36.1915274,-115.2594518,Bover,89128,188,4.5,NV,No info,No info,TRUE,No info,True,True,No info,Free wifi,No info,1,1,No info,True,TRUE,No info,0,0,0,0,1,0,1,0,0,0,1,2,0,0,1.0,0
130,130,130,53141,"9350 W Sahara Ave, Ste 140",yYwTV3c9Q3S1UDdpDhjgTg,Las Vegas,36.14698821,-115.2994773,Cold Stone Creamery,89117,128,3.5,NV,No info,No info,FALSE,No info,True,True,FALSE,Free wifi,No info,0,1,No info,True,No info,No info,0,0,1,1,0,1,1,0,0,0,1,2,0,0,1.0,0
131,131,131,53482,3553 W Dunlap Ave,vn5Ebwy-IdtJ6PQE6y7vaA,Phoenix,33.56674,-112.13599280000001,Halo-Halo Kitchen,85051,215,3.5,AZ,TRUE,TRUE,TRUE,average,True,True,FALSE,No wifi,FALSE,1,1,TRUE,False,No info,FALSE,0,0,0,0,0,0,1,1,0,0,1,2,0,0,0.0,1
132,132,132,54190,"1028 Grand Ave, Ste 6",PtJ02ZaHGB7yQxMHI7hDMw,Phoenix,33.45542247,-112.08660990000001,Novel Ice Cream,85007,386,5.0,AZ,No info,No info,FALSE,No info,True,True,No info,Free wifi,No info,1,1,No info,True,TRUE,No info,0,0,0,1,1,1,1,0,0,0,1,2,0,0,1.0,0
133,133,133,54976,"4870 Blue Diamond Rd, Ste 100",9rC6RR79KEgAp2-Qfxfn6A,Las Vegas,36.0336334,-115.2074885,Rolled Ice Cream,89139,19,3.5,NV,No info,No info,TRUE,No info,True,True,No info,Free wifi,No info,1,1,No info,True,TRUE,No info,0,0,1,0,1,0,1,0,0,0,1,2,0,0,1.0,0
134,134,134,55418,"34455 N 27th Dr, Ste 101",3lRXNifVJDgqylwaQEHvGw,Phoenix,33.797323999999996,-112.117516,Dairy Queen,85085,18,2.0,AZ,FALSE,TRUE,No info,No info,True,True,FALSE,Free wifi,FALSE,1,2,FALSE,False,No info,FALSE,0,0,1,1,1,1,1,1,1,0,1,2,0,0,1.0,1
135,135,135,55774,"707 Fremont St, Ste 1300",KiO4n-yRhKM0SZhGpsD49Q,Las Vegas,36.16793082,-115.13807709999999,Waffelato,89101,33,4.0,NV,FALSE,TRUE,FALSE,quiet,True,True,FALSE,No wifi,TRUE,1,2,TRUE,True,TRUE,FALSE,0,0,0,1,1,1,1,0,0,0,1,3,0,0,0.0,0
136,136,136,57223,3545 S Las Vegas Blvd,YXohNvMTCmGhFMSQsDZq1g,Las Vegas,36.117484999999995,-115.169832,Sprinkles Cupcakes and Ice Cream,89109,855,4.0,NV,No info,No info,TRUE,No info,True,True,TRUE,Free wifi,No info,1,2,No info,True,No info,No info,1,1,1,0,0,0,0,0,0,0,1,2,0,0,1.0,0
137,137,137,58708,"1949 E Camelback Rd, Ste 162",SgFJaawsw9ATzuUmS7ho_w,Phoenix,33.50768,-112.039869,Cold Stone Creamery,85016,35,2.5,AZ,No info,No info,FALSE,No info,True,True,No info,No wifi,No info,0,2,No info,False,No info,No info,0,0,1,1,1,1,1,0,0,0,1,2,0,0,0.0,1
138,138,138,58903,8200 Providence Rd,iAD5r5vNOzc1AP6UA5yFiQ,Charlotte,35.095238,-80.77908199999997,Bella Fresco,28277,137,3.5,NC,TRUE,TRUE,TRUE,average,True,True,TRUE,Free wifi,TRUE,1,2,TRUE,True,No info,TRUE,0,0,0,0,0,0,0,0,0,0,0,2,0,0,1.0,0
139,139,139,59614,"9480 S Eastern Ave, Ste 100",tEaW0zgsYihSTjysrpXaWg,Las Vegas,36.0171469,-115.1171168,Nielsen__ Frozen Custard,89123,457,4.5,NV,No info,No info,FALSE,No info,True,True,No info,No wifi,No info,1,1,No info,True,TRUE,No info,0,0,0,1,1,1,1,0,0,0,1,2,0,0,0.0,0
140,140,140,59691,3355 Las Vegas Blvd S,Te8ubqIn8aH2uplVhvMntw,Las Vegas,36.12264766,-115.16879579999998,Cocolini's,89109,135,3.0,NV,No info,No info,FALSE,No info,True,True,No info,No wifi,FALSE,1,2,No info,False,No info,No info,0,0,0,1,0,1,1,1,0,0,0,2,0,0,0.0,1
141,141,141,60040,"4810 E Ray Rd, Ste 7A",qeQjp9pa9PkyXDv9P5l4Ow,Phoenix,33.3212152,-111.9795485,Yummies Yogurt,85044,37,3.5,AZ,No info,No info,FALSE,No info,True,True,No info,Free wifi,No info,1,1,No info,True,TRUE,No info,0,0,1,1,1,1,1,0,0,0,1,2,0,0,1.0,0
142,142,142,60702,3301 S Jones Blvd,U9_8pqsGTMyuliV4b4cvgQ,Las Vegas,36.1287386,-115.22540579999999,Baskin-Robbins,89146,68,4.0,NV,No info,No info,FALSE,No info,True,True,FALSE,Free wifi,No info,1,1,No info,True,No info,No info,0,0,1,1,1,1,1,0,0,0,1,2,0,0,1.0,0
143,143,143,61057,12925 S 48th St,gio48on8yQyFW1fJ1dChGg,Phoenix,33.329939,-111.980085,Andy's Frozen Custard,85044,91,4.0,AZ,No info,No info,FALSE,No info,True,True,No info,No wifi,No info,1,2,No info,True,TRUE,No info,0,0,1,1,1,1,1,1,0,0,1,2,0,0,0.0,0
144,144,144,61196,10975 Oval Park Dr,jBh399TajGcH28Zo2J1pHw,Las Vegas,36.151531799999994,-115.33301570000002,Shake Shack,89135,547,3.5,NV,TRUE,TRUE,FALSE,average,True,True,FALSE,Free wifi,TRUE,1,2,TRUE,True,TRUE,FALSE,0,0,0,1,0,1,1,0,0,0,1,2,0,0,1.0,0
145,145,145,61211,"6592 N Decatur Blvd, Ste 100",Oov46oqwdu6ljHokq1xjfg,Las Vegas,36.27981785,-115.2050081,U-Swirl Frozen Yogurt,89131,98,4.0,NV,No info,No info,FALSE,No info,True,True,No info,Free wifi,No info,1,1,No info,True,No info,No info,0,0,1,1,1,1,1,1,0,0,1,2,0,0,1.0,0
146,146,146,61899,5757 Wayne Newton Blvd,0tWXOKgrO1tAuZhu5X8HNw,Las Vegas,36.080752200000006,-115.1393012,Red Mango,89119,17,4.0,NV,No info,No info,FALSE,No info,True,True,No info,No wifi,No info,0,1,No info,False,No info,No info,0,0,0,1,1,1,1,0,0,0,1,2,0,0,0.0,1
147,147,147,62382,4036 N Tenaya Way,qZQI5SSqreUqVHl8i8JwOA,Las Vegas,36.23393970000001,-115.25077720000002,Dairy Queen,89129,27,3.0,NV,FALSE,TRUE,No info,No info,True,True,FALSE,No wifi,TRUE,0,1,FALSE,False,No info,FALSE,0,0,0,1,1,1,1,0,1,0,1,2,0,0,0.0,1
148,148,148,62392,2405 Eastern Ave,5TeA1dyLR7MIor-DfIrYog,Las Vegas,36.14441298,-115.11862990000002,Cherry Berries,89104,41,4.0,NV,TRUE,TRUE,FALSE,quiet,True,True,FALSE,No wifi,FALSE,1,1,TRUE,True,No info,FALSE,0,0,0,1,0,1,1,1,0,0,1,3,0,0,0.0,0
149,149,149,62406,4847 Shopton Rd,s2B_ZeSGTlQ3qbm0dOY5rg,Charlotte,35.171096999999996,-80.96354740000002,Hwy 55 Burgers Shakes & Fries,28278,71,3.0,NC,FALSE,TRUE,FALSE,average,True,True,FALSE,No wifi,FALSE,0,1,TRUE,True,No info,FALSE,0,0,0,1,1,1,1,1,0,0,1,2,0,0,0.0,0
150,150,150,62562,"4325 E Indian School Rd, Ste 110",RazK5AssZZ9l_W6h-bTkUw,Phoenix,33.494104300000004,-111.98834599999999,Creamistry,85018,139,3.0,AZ,No info,No info,TRUE,No info,True,True,No info,Free wifi,No info,1,2,No info,True,TRUE,No info,0,0,0,0,0,0,1,0,0,0,0,2,0,0,1.0,0
151,151,151,62789,"1616 Las Vegas Blvd S, Ste 130",CYeICxCmbdYbOEQxVS8_Gw,Las Vegas,36.15141954,-115.1526284,D-Scoops & Sweets Art of Flavor,89104,41,5.0,NV,No info,No info,TRUE,No info,True,True,No info,No wifi,No info,1,1,No info,True,TRUE,No info,0,0,0,0,0,0,1,0,0,0,1,2,0,0,0.0,0
152,152,152,63037,3446 W Camelback Rd,U5qwBnjmf54Q4pW8Zajt7A,Phoenix,33.510306,-112.1324027,YobaHut,85017,36,4.0,AZ,No info,No info,TRUE,No info,True,True,No info,Free wifi,No info,1,1,No info,True,TRUE,No info,0,0,1,0,1,0,1,0,0,0,1,2,0,0,1.0,0
153,153,153,63163,3400 E Sky Harbor Blvd,Wl33gUSRNpWth-Z5li4JwQ,Phoenix,33.43674775,-111.9966791,Sweet Republic,85034,37,3.5,AZ,No info,No info,FALSE,No info,True,True,FALSE,No wifi,No info,0,1,No info,False,No info,No info,0,0,0,1,1,1,1,0,0,0,1,2,0,0,0.0,1
154,154,154,63385,"6120 W Tropicana Ave, Ste A17",6T39H2dGUnrM91WqvR0VcQ,Las Vegas,36.1014755,-115.22556499999999,Mr Tea,89103,363,4.5,NV,No info,No info,FALSE,No info,True,True,No info,Free wifi,TRUE,1,1,No info,True,TRUE,No info,0,0,0,1,1,1,1,0,0,0,1,2,0,0,1.0,0
155,155,155,64461,9020 St Simon Way,VNyrLWOqd8o6RdKs0I6Fwg,Pittsburgh,40.56901511,-80.02503337,Handel's Homemade Ice Cream & Yogurt,15237,28,4.5,PA,No info,No info,No info,No info,True,True,No info,No wifi,No info,1,1,No info,True,No info,No info,0,0,1,0,1,0,1,0,0,0,1,2,0,0,0.0,0
156,156,156,65580,913 Central Ave,m3XOBJyAJIWEJJUpngVLLw,Charlotte,35.221885,-80.8225322,Two Scoops Creamery,28204,202,4.5,NC,No info,No info,TRUE,No info,True,True,No info,Free wifi,No info,1,1,No info,True,TRUE,No info,0,0,0,0,1,0,1,1,0,0,1,2,0,0,1.0,0
157,157,157,65723,535 Liberty Ave,Hb717wjzx1Q7cVXQo1-u2w,Pittsburgh,40.441994,-80.002562,BRGR,15222,32,4.0,PA,TRUE,TRUE,No info,No info,True,True,FALSE,No wifi,TRUE,1,2,TRUE,True,No info,TRUE,0,0,0,1,0,1,1,0,0,0,0,2,0,0,0.0,0
158,158,158,65894,3860 Chartiers Ave,PnfQvtyc5QNcKj7UCY-Riw,Pittsburgh,40.4590524,-80.0769992,Remember When Ice Cream,15204,18,4.0,PA,No info,No info,FALSE,No info,True,True,No info,No wifi,No info,1,1,No info,True,TRUE,No info,0,0,0,1,1,1,1,1,0,0,1,2,0,0,0.0,0
159,159,159,66976,5823 N 7th St,1r9xmPVZqsiTNQr_FAcs8w,Phoenix,33.522572,-112.064706,Mary Coyle Ol' Fashion Ice Cream,85014,115,4.0,AZ,TRUE,TRUE,TRUE,average,False,True,FALSE,No wifi,FALSE,1,1,TRUE,True,TRUE,FALSE,0,0,0,0,0,0,1,1,0,0,1,2,1,0,0.0,0
160,160,160,67773,"455 N 3rd St, Ste 120",36psxeiUa-zB0XiOoFXubA,Phoenix,33.45284363,-112.06858899999999,Cold Stone Creamery,85004,38,3.0,AZ,No info,No info,No info,No info,True,True,No info,No wifi,No info,0,2,No info,True,No info,No info,0,0,1,1,1,1,1,0,0,0,1,2,0,0,0.0,0
161,161,161,68025,"7501 W Lake Mead Blvd, Ste 105, Summerhill Plaza Strip Mall",EomaPrsFLVSe9TLRtpevwA,Las Vegas,36.195137,-115.257322,Dairy Queen,89128,35,3.5,NV,FALSE,TRUE,FALSE,No info,True,True,FALSE,Free wifi,TRUE,1,1,TRUE,True,TRUE,FALSE,0,0,0,1,1,1,1,0,0,0,1,2,0,0,1.0,0
162,162,162,68296,3570 Las Vegas Blvd S,uF7sXHXZUy5UuyjsesJ4Jg,Las Vegas,36.116208,-115.175068,Della Spiga Cafe,89109,38,1.5,NV,No info,No info,No info,No info,True,True,No info,Free wifi,No info,1,3,No info,False,No info,No info,0,0,0,1,1,1,1,0,0,0,1,2,0,0,1.0,1
163,163,163,68940,6135 S Pecos,WlTeMP8p3m1b3LxkfBllLQ,Las Vegas,36.07833293,-115.10151880000001,Sonic Drive-In,89120,41,3.0,NV,FALSE,TRUE,FALSE,average,True,True,FALSE,No wifi,TRUE,1,1,TRUE,True,No info,FALSE,0,0,1,1,1,1,1,0,0,0,1,2,0,0,0.0,0
164,164,164,69328,12456 N 28th Dr,DkNJFy9cEM606nsgfs494g,Phoenix,33.599808200000005,-112.11999080000001,Dairy Queen,85029,22,2.5,AZ,FALSE,TRUE,FALSE,quiet,True,True,FALSE,No wifi,FALSE,1,1,TRUE,False,No info,FALSE,0,0,0,1,1,1,1,1,0,0,1,3,0,0,0.0,1
165,165,165,69808,"8451 Davis Lake Pkwy, Ste B1",j7MAcrMGsiRCrFLLQH-XEQ,Charlotte,35.33435757,-80.81444529,Hwy 55 Burgers Shakes & Fries,28269,64,3.0,NC,FALSE,TRUE,TRUE,average,True,True,FALSE,Free wifi,TRUE,1,1,TRUE,True,No info,FALSE,0,0,0,0,1,0,1,0,0,0,1,2,0,0,1.0,0
166,166,166,69838,"9211 N Tryon St, Ste 4",mv9ml_hdkfaFZOfFumdGBQ,Charlotte,35.31218148,-80.74584093,Insomnia Cookies,28262,54,3.5,NC,No info,No info,TRUE,No info,True,True,TRUE,No wifi,No info,0,1,No info,True,No info,No info,1,1,1,0,1,0,0,1,0,0,1,2,0,0,0.0,0
167,167,167,69919,305 N Nellis Blvd,AZRUB9twDxhm3JYicAw0NA,Las Vegas,36.1671956,-115.06277040000002,U-Swirl Frozen Yogurt,89110,47,3.0,NV,No info,No info,TRUE,No info,True,True,No info,No wifi,No info,1,1,No info,False,TRUE,No info,0,0,1,0,1,0,0,1,0,0,1,2,0,0,0.0,1
168,168,168,71297,774 Penn Ave,80-1hn5fAJXFsxuyLe0w7A,Pittsburgh,40.4427831,-79.8827979,Leona's Ice Cream Sandwiches,15221,16,4.5,PA,No info,No info,No info,No info,True,True,FALSE,No wifi,No info,0,1,No info,True,No info,No info,0,0,0,1,1,1,1,0,0,0,1,2,0,0,0.0,0
169,169,169,71583,300 S Craig St,Sd6kNeNCpY3FkGF-RmjQHw,Pittsburgh,40.44569191,-79.9489865,Razzy Fresh,15213,86,4.0,PA,No info,No info,FALSE,No info,True,True,No info,Free wifi,No info,1,1,No info,True,No info,No info,1,1,1,1,1,1,1,0,0,0,1,2,0,0,1.0,0
170,170,170,71959,1316 Poplar St,Dz48AHU652_zg43sBPRb9w,Pittsburgh,40.427698,-80.052296,Antney's,15205,112,5.0,PA,No info,No info,FALSE,No info,True,True,No info,No wifi,No info,1,1,No info,True,No info,No info,0,0,0,1,1,1,1,1,0,0,1,2,0,0,0.0,0
171,171,171,72067,"1220 E Harmon Ave, Ste A",2rvBPUBtQU0WfcOAHLQWRQ,Las Vegas,36.107996299999996,-115.13639369999999,Crunch Donut Factory,89119,154,3.5,NV,FALSE,TRUE,TRUE,average,True,True,TRUE,Free wifi,FALSE,1,1,TRUE,True,TRUE,FALSE,1,1,1,0,1,0,0,1,0,0,1,2,0,0,1.0,0
172,172,172,72392,"11725 North 19th Ave, Ste 12",cnXyideAGnrIjKjLjOZcHA,Phoenix,33.59184689,-112.0991455,Raspados el Tarasco,85029,13,4.5,AZ,No info,No info,FALSE,No info,False,True,No info,Free wifi,No info,0,1,No info,False,TRUE,No info,0,0,0,1,0,1,1,1,0,0,1,2,1,0,1.0,1
173,173,173,72448,"4045 S Buffalo Dr, Ste A108",u-3exVNGKE0iJ7nnxS3BbA,Las Vegas,36.1153027,-115.26262790000001,Cloud Tea,89147,145,5.0,NV,No info,No info,FALSE,No info,True,True,No info,Free wifi,FALSE,1,1,No info,False,TRUE,No info,1,1,1,1,1,1,1,1,0,0,0,2,0,0,1.0,1
174,174,174,73213,12 Ogden Ave,egpDg61SdYbKWvCpPM7Nbg,Las Vegas,36.17315678,-115.14519709999999,Lappert's Ice Cream Shop,89101,220,4.0,NV,No info,No info,FALSE,No info,True,True,FALSE,No wifi,No info,1,1,No info,False,No info,No info,0,0,1,1,1,1,1,1,0,0,1,2,0,0,0.0,1
175,175,175,73805,4007 E Greenway Rd,MOi64A9mDpK9zUB8546L8Q,Phoenix,33.6260043,-111.9955494,Sonic Drive-In,85032,57,2.5,AZ,FALSE,TRUE,FALSE,average,True,True,FALSE,No wifi,TRUE,1,1,TRUE,True,No info,FALSE,0,0,1,1,1,1,1,0,0,0,1,2,0,0,0.0,0
176,176,176,74111,3826 Atwood Ave,V46DbgV5cTnYAwpBS70owQ,Madison,43.085135,-89.3252429,Michael's Frozen Custard,53714,57,3.0,WI,FALSE,TRUE,FALSE,average,True,True,FALSE,Free wifi,TRUE,1,1,TRUE,True,No info,FALSE,0,0,1,1,1,1,1,0,0,0,1,2,0,0,1.0,0
177,177,177,74318,571 State St,Mp-spZbBtbHkzubDSYPs2Q,Madison,43.07480020000001,-89.39544620000002,"MOOYAH Burgers, Fries & Shakes",53703,43,4.0,WI,TRUE,TRUE,FALSE,average,True,True,FALSE,No wifi,FALSE,1,1,TRUE,True,TRUE,FALSE,0,0,0,1,0,1,1,1,0,0,1,2,0,0,0.0,0
178,178,178,74435,6656 Odana Rd,-2Arz8twKJmxHMS3Sv-TeA,Madison,43.056055,-89.4954923,Steep & Brew West,53719,29,3.5,WI,No info,No info,TRUE,No info,True,True,No info,Free wifi,FALSE,1,1,No info,True,TRUE,No info,0,0,0,0,1,0,1,1,0,0,1,2,0,0,1.0,0
179,179,179,75108,"2700 W Mallard Creek Church Rd, Ste 210",pOfQ5CnE8YxZeQNvf7WdkQ,Charlotte,35.340251,-80.7649579,Cold Stone Creamery,28262,35,3.0,NC,No info,No info,TRUE,No info,True,True,FALSE,No wifi,No info,1,2,No info,False,No info,No info,0,0,0,0,1,0,1,0,0,0,1,2,0,0,0.0,1
180,180,180,75465,"4750 W Sahara Ave, Ste 14",mZZpoSSg9-PteV7EV-Keqg,Las Vegas,36.145865,-115.20638999999998,Chamango,89102,51,3.5,NV,FALSE,TRUE,TRUE,loud,True,True,TRUE,Free wifi,FALSE,1,1,TRUE,True,TRUE,FALSE,0,0,1,0,1,0,0,1,0,0,1,1,0,0,1.0,0
181,181,181,75480,"4410 N 40th St, Ste 5",Ao5E4Ppw0m5CNlRjg3mnjQ,Phoenix,33.5024095,-111.9955012,Grateful Spoon Gelato,85018,22,4.0,AZ,No info,No info,No info,No info,True,True,No info,Free wifi,No info,1,1,No info,True,No info,No info,0,0,0,0,1,0,1,1,0,0,1,2,0,0,1.0,0
182,182,182,75492,5880 Forbes Ave,TmGxQgFdiG585PCs_2hCew,Pittsburgh,40.43784160000001,-79.9197512,Rita's Italian Ice,15217,38,4.5,PA,No info,No info,TRUE,No info,True,True,No info,No wifi,No info,1,1,No info,True,TRUE,No info,0,0,0,0,1,0,1,0,0,0,1,2,0,0,0.0,0
183,183,183,75720,1816 E 12th St,IAbq5UuXX_hJbxTOB5suWQ,Cleveland,41.50174569,-81.68501346,Vintage Tea & Coffee,44114,65,4.5,OH,FALSE,FALSE,TRUE,No info,True,True,FALSE,Free wifi,FALSE,1,2,FALSE,True,TRUE,FALSE,0,0,0,0,1,0,1,1,1,0,1,2,0,0,1.0,0
184,184,184,76157,12625 N Tatum Blvd,Y9xXCBRs1HWRBjhR7JYP7A,Phoenix,33.6005034,-111.978852,Cold Stone Creamery,85032,29,3.5,AZ,No info,No info,TRUE,No info,True,True,FALSE,No wifi,No info,1,2,No info,True,No info,No info,0,0,1,0,1,0,1,0,0,0,1,2,0,0,0.0,0
185,185,185,77286,4675 W Charleston Blvd,qtZ50TWkfNS2UtLLuD1m8Q,Las Vegas,36.15862420000001,-115.2047571,Freddy's Frozen Custard & Steakburgers,89102,179,4.5,NV,FALSE,TRUE,FALSE,average,True,True,FALSE,Free wifi,TRUE,1,1,TRUE,True,TRUE,FALSE,0,0,0,1,1,1,1,0,0,0,1,2,0,0,1.0,0
186,186,186,77785,"2740 S Philo Rd, Ste D",avIdLrNHtJDsth8w3i4WOg,Urbana,40.0828635,-88.18907659999998,Red Bicycle Ice Cream,61801,19,4.0,IL,No info,No info,No info,No info,True,True,No info,Free wifi,TRUE,1,2,No info,True,TRUE,No info,0,0,0,0,1,0,1,0,0,0,1,2,0,0,1.0,0
187,187,187,78142,1930 Village Center Cir,Pg4U6vKD42yswcGtnrBSSA,Las Vegas,36.1938176,-115.3058135,Donut Mania,89134,47,3.5,NV,No info,No info,TRUE,No info,True,True,No info,No wifi,No info,1,2,No info,True,TRUE,No info,0,0,1,0,1,0,0,1,0,0,1,2,0,0,0.0,0
188,188,188,79215,2502 E Camelback Rd,xDAjrXQ54-cLj0zYMkT03A,Phoenix,33.5104431,-112.0287274,Frost Gelato at the Biltmore,85016,235,4.5,AZ,No info,No info,TRUE,No info,True,True,No info,Free wifi,No info,1,2,No info,True,TRUE,No info,0,0,1,0,1,0,1,1,0,0,1,2,0,0,1.0,0
189,189,189,79584,"6640 N Durango Dr, Ste 150",RRFfe2Ex2XBcaK2zxSN0eg,Las Vegas,36.281175,-115.28621399999999,Cold Stone Creamery,89149,112,2.5,NV,No info,No info,FALSE,No info,True,True,TRUE,No wifi,No info,0,2,No info,False,No info,No info,0,0,1,1,1,1,0,1,0,0,1,2,0,0,0.0,1
190,190,190,80732,10410 S Decatur Blvd,9virZ-ORrLHsv0p8EORxeg,Las Vegas,36.0002461,-115.2072106,Dairy Queen,89141,39,2.0,NV,FALSE,TRUE,No info,No info,True,True,FALSE,No wifi,FALSE,0,1,FALSE,True,No info,FALSE,0,0,1,1,1,1,1,1,1,0,1,2,0,0,0.0,0
191,191,191,81041,"100 E Camelback Rd, Ste 150",jY2RWYyP42EhEtmhfQrnPQ,Phoenix,33.510597,-112.072199,Creamistry,85012,306,3.5,AZ,No info,No info,FALSE,No info,True,True,No info,Free wifi,No info,1,2,No info,True,TRUE,No info,0,0,0,1,1,1,1,0,0,0,1,2,0,0,1.0,0
192,192,192,81227,5384 Mifflin Rd,6Uv15dNmIxtPMB_1O2O1vA,Pittsburgh,40.36878770000001,-79.9105045,The Scoop,15207,30,4.0,PA,FALSE,TRUE,FALSE,No info,True,False,FALSE,No wifi,TRUE,0,1,TRUE,False,No info,FALSE,0,0,1,1,1,1,1,0,0,0,1,2,0,1,0.0,1
193,193,193,81681,5602 Schroeder Rd,TaRdrB68Ej3RtQuSaw24PA,Madison,43.04673029999999,-89.4758187,Michael's Frozen Custard,53711,36,3.0,WI,No info,No info,FALSE,No info,True,True,No info,No wifi,No info,1,2,No info,True,No info,No info,0,0,1,1,1,1,1,0,0,0,1,2,0,0,0.0,0
194,194,194,81854,"5651 S Grand Canyon Dr, Ste 140",dSARO9oaVVVIUd-VtWNTxQ,Las Vegas,36.0861993,-115.30760349999998,Udderly Rolled,89148,23,4.5,NV,No info,No info,FALSE,No info,True,True,No info,No wifi,No info,1,1,No info,True,TRUE,No info,0,0,0,1,0,1,1,1,0,0,1,2,0,0,0.0,0
195,195,195,81883,5200 Clairton Blvd,4RhyluqR0eXERECBLallXQ,Pittsburgh,40.3441894,-79.9723556,Sugar & Spice,15236,34,4.0,PA,No info,No info,FALSE,No info,True,True,FALSE,No wifi,No info,1,1,No info,True,No info,No info,0,0,0,1,1,1,1,0,0,0,1,2,0,0,0.0,0
196,196,196,82212,3752 Las Vegas Blvd,JFPKfg_FNxCD4mNqAAAllQ,Las Vegas,36.106212,-115.174213,Pinkberry,89158,116,4.0,NV,No info,No info,TRUE,No info,True,True,No info,No wifi,No info,0,1,No info,True,No info,No info,0,0,1,0,1,0,1,1,0,0,1,2,0,0,0.0,0
197,197,197,83847,7331 Butler St,_YbzxBhz0L7tV-f8KGiNDA,Pittsburgh,40.4880474,-79.92000240000002,Allegheny Ice Cream,15206,17,4.0,PA,No info,No info,No info,No info,True,True,No info,No wifi,No info,0,1,No info,True,No info,No info,0,0,0,1,1,1,1,0,0,0,1,2,0,0,0.0,0
198,198,198,84475,2128 Murray Ave,RThuRlhMdowhtY8vITEIzQ,Pittsburgh,40.4328604,-79.9232273,Mineo's Pizza House,15217,288,3.5,PA,TRUE,TRUE,FALSE,average,True,False,FALSE,No wifi,FALSE,1,1,TRUE,True,No info,FALSE,1,1,1,1,0,1,1,1,0,0,1,2,0,1,0.0,0
199,199,199,84910,2415 E Baseline Rd,a4CCRl5Uo2vXfrVgpU6vmw,Phoenix,33.3772505,-112.0298918,Zoyo Neighborhood Yogurt,85042,24,4.0,AZ,No info,No info,FALSE,No info,True,True,No info,No wifi,No info,0,1,No info,True,No info,No info,0,0,1,1,0,1,1,0,0,0,1,2,0,0,0.0,0
200,200,200,84950,"3655 S Durango Dr, Ste 19",eJYLFG7BKCxE7uqrEolXVw,Las Vegas,36.276952200000004,-115.28740829999998,Thrifty's Ice cream,89147,54,3.5,NV,No info,No info,FALSE,No info,True,True,No info,No wifi,No info,1,1,No info,True,No info,No info,0,0,1,1,1,1,1,1,0,0,1,2,0,0,0.0,0
201,201,201,86258,"3202 E Greenway Rd, Ste 1279",5UCUIK-O6m7tSpi02B6F5g,Phoenix,33.62763625,-112.0116502,Oasis Raspados,85032,22,4.5,AZ,FALSE,TRUE,FALSE,average,True,True,FALSE,No wifi,FALSE,1,1,TRUE,True,No info,FALSE,0,0,0,1,1,1,1,1,0,0,1,2,0,0,0.0,0
202,202,202,86354,5050 N Central Ave,k1bwHg1izaXnUz67pSx_zQ,Phoenix,33.51040954,-112.07404740000001,Dairy Queen,85012,38,3.0,AZ,FALSE,TRUE,FALSE,average,True,True,FALSE,No wifi,TRUE,1,1,TRUE,True,No info,FALSE,0,0,0,1,1,1,1,0,0,0,1,2,0,0,0.0,0
203,203,203,86387,3533 Forbes Ave,cmaPrML-0zCJOs8_1VYmaw,Pittsburgh,40.4405895,-79.95852430000002,Razzy Fresh,15213,39,4.5,PA,No info,No info,No info,No info,True,True,No info,No wifi,No info,1,1,No info,True,No info,No info,1,0,0,0,1,0,1,1,0,0,1,2,0,0,0.0,0
204,204,204,86578,9151 W. Sahara Ave,DxzAGrpddzgGmdtNBHgi8g,Las Vegas,36.14393,-115.29698,Baskin-Robbins,89117,99,2.0,NV,No info,No info,FALSE,No info,True,True,No info,No wifi,No info,1,1,No info,True,No info,No info,0,0,1,1,1,1,1,1,0,0,1,2,0,0,0.0,0
205,205,205,87362,654 Washington Rd,uZBRmbonKzNnl0rwY7COrQ,Pittsburgh,40.381136100000006,-80.0445734,15° Fahrenheit Rolled Ice Cream,15228,38,3.0,PA,No info,No info,TRUE,No info,True,True,No info,No wifi,No info,0,1,No info,True,TRUE,No info,0,0,0,0,1,0,1,0,0,0,1,2,0,0,0.0,0
206,206,206,87896,17635 Lake Shore Blvd,3VZ98ST9--1a5XkqKT-xCA,Cleveland,41.584147200000004,-81.5574001,Sandy's Frozen Whip,44119,12,4.5,OH,No info,No info,No info,No info,True,False,No info,No wifi,No info,1,1,No info,True,No info,No info,0,0,0,1,0,1,1,1,0,0,1,2,0,1,0.0,0
207,207,207,88024,"8841 N 19th Ave, Ste 101",3H3KLktgOrKr9UzpUUSZwA,Phoenix,33.5657923,-112.0991561,Baskin-Robbins,85021,19,3.5,AZ,No info,No info,No info,No info,True,True,No info,No wifi,No info,1,1,No info,True,No info,No info,0,0,0,0,1,0,1,0,0,0,1,2,0,0,0.0,0
208,208,208,88226,31 27th St,SSOG-T0sA2UlQkhqkkHBgQ,Pittsburgh,40.42640372,-79.96729122,Cup ka Joe,15203,30,4.0,PA,No info,No info,FALSE,No info,True,True,No info,Free wifi,TRUE,1,1,No info,True,No info,No info,0,0,1,1,1,1,1,0,0,0,1,2,0,0,1.0,0
209,209,209,88251,4442 N Decatur Blvd,roA-hNugvAwiyVirIFH8Aw,Las Vegas,36.2402513,-115.2069047,Sonic Drive-In,89130,60,2.0,NV,FALSE,TRUE,FALSE,quiet,True,True,FALSE,No wifi,TRUE,1,1,FALSE,True,No info,FALSE,1,1,1,1,1,1,1,0,1,0,1,3,0,0,0.0,0
210,210,210,88539,3730 S Las Vegas Blvd,#NAME?,Las Vegas,36.1073485,-115.17658359999999,Pressed Juicery,89158,62,4.5,NV,No info,No info,FALSE,No info,True,True,No info,Free wifi,No info,1,2,No info,False,No info,No info,0,0,1,1,1,1,1,0,0,0,1,2,0,0,1.0,1
211,211,211,89339,10225 N 28th Dr,rnBffgr3QiXUpKef2YFScg,Phoenix,33.579927000000005,-112.121325,Culver's,85051,109,3.5,AZ,TRUE,TRUE,FALSE,average,True,True,FALSE,Free wifi,TRUE,1,1,TRUE,True,No info,FALSE,0,0,1,1,0,1,1,0,0,0,1,2,0,0,1.0,0
212,212,212,89345,1325 Northport Dr,fQ1sYWuXtVVOFWhrC9bTrA,Madison,43.1341283,-89.3728841,Culver's,53704,16,3.5,WI,TRUE,TRUE,No info,quiet,True,True,FALSE,Free wifi,FALSE,1,1,TRUE,True,No info,FALSE,0,0,1,1,0,1,1,1,0,0,1,3,0,0,1.0,0
213,213,213,90356,4674 State Rd,JYFYfJL6t1EK99xofAjJUw,Cleveland,41.42721105,-81.70933303,Honey Hut Ice Cream,44109,90,5.0,OH,No info,No info,TRUE,No info,True,True,No info,No wifi,No info,1,1,No info,True,No info,No info,0,0,0,0,1,0,1,1,0,0,1,2,0,0,0.0,0
214,214,214,90403,1702 W Camelback Rd,uFCEU_OtDoF2_7NZ8jYBEw,Phoenix,33.51007761,-112.09610479999999,Milk Run,85015,268,4.5,AZ,No info,No info,FALSE,No info,True,True,No info,Free wifi,FALSE,0,1,No info,True,TRUE,No info,0,0,0,1,1,1,1,1,0,0,1,3,0,0,1.0,0
215,215,215,90531,"1616 Camden Rd, Ste 100",KaC1p_ZNegGBZULLEYU9vg,Charlotte,35.2142559,-80.857754,Two Scoops Creamery Southend,28203,13,4.5,NC,No info,No info,No info,No info,True,True,No info,No wifi,No info,0,1,No info,True,No info,No info,0,0,0,1,0,1,1,1,0,0,1,2,0,0,0.0,0
216,216,216,90591,1930 Camden Rd,NbrXg59fYR3MoeXdeAIQIQ,Charlotte,35.2110826,-80.8610434,Pike's Old Fashioned Soda Shop,28203,298,3.5,NC,TRUE,TRUE,TRUE,average,True,True,FALSE,Free wifi,TRUE,1,2,TRUE,True,No info,FALSE,0,0,0,0,0,0,1,0,0,0,1,2,0,0,1.0,0
217,217,217,91470,207 Atwood St,Hz1F5uruPe1kCsf5PIA6Sg,Pittsburgh,40.440925299999996,-79.9573017,Dave & Andy's,15213,258,4.5,PA,No info,No info,FALSE,No info,True,False,No info,No wifi,No info,1,1,No info,True,TRUE,No info,0,0,0,1,1,1,1,1,0,0,1,3,0,1,0.0,0
218,218,218,91663,825 E Camelback Rd,poX-2lODvtmkR6pve8FXFA,Phoenix,33.508841,-112.06307199999999,Culver's,85014,170,3.5,AZ,TRUE,TRUE,FALSE,average,True,True,FALSE,Free wifi,TRUE,1,1,TRUE,True,No info,FALSE,0,0,1,1,0,1,1,0,0,0,1,2,0,0,1.0,0
219,219,219,92397,664 Washington Rd,hDRjIbbseWN7ZSVZy2t2fA,Pittsburgh,40.380726,-80.044831,Betsy's Ice Cream,15228,54,4.0,PA,No info,No info,TRUE,No info,True,True,No info,Free wifi,No info,1,1,No info,True,No info,No info,0,0,0,0,1,0,1,0,0,0,1,2,0,0,1.0,0
220,220,220,93453,4401 Bridge Ave,p6Rf2hsyF1eYVJk9ag3W2A,Cleveland,41.48046804,-81.71669469,Mason's Creamery,44113,208,4.5,OH,FALSE,TRUE,TRUE,average,True,True,FALSE,Free wifi,TRUE,1,1,TRUE,True,No info,FALSE,0,0,0,0,1,0,1,0,0,0,1,2,0,0,1.0,0
221,221,221,93627,2611 W Carefree Hwy,KIrNrwAb15RH_L9xItcA3g,Phoenix,33.79740635,-112.11754209999998,Dairy Queen Orange Julius,85085,11,3.0,AZ,No info,No info,No info,No info,True,True,No info,No wifi,No info,0,1,No info,True,No info,No info,0,0,0,1,0,1,1,1,0,0,1,2,0,0,0.0,0
222,222,222,94329,2801 Penn Ave,4iSVxQKK1G3V-LBffQxaKg,Pittsburgh,40.4570297,-79.9756142,Klavon's Ice Cream Parlor,15222,187,4.0,PA,No info,No info,TRUE,No info,True,True,FALSE,No wifi,No info,1,1,No info,True,No info,FALSE,0,0,0,0,1,0,1,0,0,0,1,2,0,0,0.0,0
223,223,223,95148,11011 W Charleston Blvd,6Vvr7K3fB4oDVBeSBPvvyQ,Las Vegas,36.15594114,-115.3340149,Ben & Jerry's Ice Cream,89135,20,4.0,NV,No info,No info,FALSE,No info,True,True,No info,No wifi,No info,1,1,No info,False,No info,No info,0,0,0,1,1,1,1,0,0,0,1,2,0,0,0.0,1
224,224,224,95329,719 Brookline Blvd,yJwHl1SyJkAz7xOxtCnqjg,Pittsburgh,40.3946079,-80.02078780000002,Scoops On The Boulevard,15226,17,4.5,PA,No info,TRUE,No info,No info,True,True,No info,No wifi,No info,1,1,No info,True,No info,No info,0,0,1,1,1,1,1,0,0,0,1,2,0,0,0.0,0
225,225,225,95405,"410 S Rampart Blvd, #135",EtslnZaLkUaC_ooVZtHbYQ,Las Vegas,36.1685774,-115.28516509999999,Pressed Juicery,89145,67,4.5,NV,No info,No info,FALSE,No info,True,True,No info,Free wifi,No info,1,1,No info,True,No info,No info,0,0,1,1,1,1,1,0,0,0,1,2,0,0,1.0,0
226,226,226,96643,"10550 Southern Highlands Pkwy, Ste 110",oyh1CYVHDiAyDtF-ug8y3w,Las Vegas,35.9974897,-115.20563259999999,Pineapple Park,89141,246,4.0,NV,TRUE,TRUE,TRUE,average,True,True,FALSE,No wifi,TRUE,1,1,TRUE,True,TRUE,FALSE,0,0,0,0,0,0,1,0,0,0,1,2,0,0,0.0,0
227,227,227,96753,6850 Spring Mountain Rd,fbyYmI6VkWFBhYTreIqyTQ,Las Vegas,36.1271948,-115.24134009999999,Bbear Cafe,89146,21,4.0,NV,No info,No info,No info,No info,True,True,No info,Free wifi,No info,0,1,No info,True,No info,No info,0,0,0,0,1,0,1,1,0,0,1,2,0,0,1.0,0
228,228,228,97526,"5165 S Fort Apache Rd, Ste 160",dYDuaXVyIXMXlmeMYf2ktw,Las Vegas,36.09571500000001,-115.29826840000001,Sweet Addiction,89148,435,4.0,NV,No info,No info,TRUE,No info,True,True,FALSE,No wifi,No info,1,1,No info,True,TRUE,No info,0,0,0,0,1,0,1,0,0,0,1,2,0,0,0.0,0
229,229,229,97527,12641 N Cave Creek Rd,EjQOE5UZgqC0O9KSErZXIw,Phoenix,33.602238899999996,-112.0364822,Dairy Queen,85022,22,2.0,AZ,FALSE,TRUE,FALSE,average,True,True,FALSE,No wifi,FALSE,0,1,TRUE,True,No info,FALSE,0,0,0,1,1,1,1,1,0,0,1,2,0,0,0.0,0
230,230,230,98172,"7435 S Durango Dr, Ste 103",DBcBz2b8c4eHHxAzln3gog,Las Vegas,36.0529679,-115.2799153,Cold Stone Creamery,89113,105,2.5,NV,No info,No info,TRUE,No info,True,True,FALSE,No wifi,No info,1,1,No info,True,No info,No info,0,0,1,0,1,0,1,0,0,0,1,2,0,0,0.0,0
231,231,231,98242,9864 Rea Rd,AKb-cQ8K7XqKDdgSkAml8A,Charlotte,35.036187899999994,-80.8076287,TCBY,28277,21,3.0,NC,No info,No info,No info,No info,True,True,No info,No wifi,No info,1,1,No info,True,No info,No info,0,0,0,1,1,1,1,0,0,0,1,3,0,0,0.0,0
232,232,232,98377,"505 W Dunlap Ave, Ste H",cO3m54wXVDJW8ryy_2wpBQ,Phoenix,33.567213,-112.081629,Antojitos Mi Pueblo,85021,23,4.5,AZ,TRUE,TRUE,No info,average,True,True,FALSE,No wifi,FALSE,1,1,TRUE,True,No info,FALSE,0,0,0,1,0,1,1,1,0,0,1,2,0,0,0.0,0
233,233,233,99148,"2510 W Thunderbird Rd, Ste 1",QxoEkFbKsmpPrzPpWGfJgg,Phoenix,33.611236,-112.110114,Lucky Donuts,85023,116,4.5,AZ,No info,No info,TRUE,No info,True,True,FALSE,No wifi,No info,1,1,No info,False,No info,No info,0,0,1,0,1,0,1,1,0,0,1,2,0,0,0.0,1
234,234,234,99554,"9605 N Tryon St, Ste S",O0MFflOOBQYIl9Idnokq4w,Charlotte,35.31719370000001,-80.74020412,Rolo Poke,28262,22,4.5,NC,No info,No info,TRUE,No info,True,True,No info,Free wifi,No info,1,2,No info,False,TRUE,No info,0,0,1,0,1,0,1,1,0,0,1,2,0,0,1.0,1
235,235,235,99578,3550 E Bell Rd,h4U3h1RbgLvHl0fKSSUhPA,Phoenix,33.6410008,-112.00518329999998,Dairy Queen,85032,74,1.5,AZ,FALSE,TRUE,FALSE,average,True,True,FALSE,No wifi,FALSE,1,1,TRUE,True,No info,FALSE,0,0,0,1,1,1,1,1,0,0,1,2,0,0,0.0,0
236,236,236,100409,"7920 W Tropical, Ste 150",MxD3DexXbyNNXUNdhZ8mIA,Las Vegas,36.2714973,-115.267591,Rolled Ice Cream,89149,114,4.0,NV,No info,No info,TRUE,No info,True,True,No info,No wifi,No info,0,1,No info,True,TRUE,No info,0,0,1,0,1,0,1,1,0,0,1,2,0,0,0.0,0
237,237,237,100736,Charlotte Douglas International Airport Clt,XY8toAsZhldSASUQtBVziw,Charlotte,35.21927005,-80.94507746,Pino Gelato,28208,23,3.0,NC,No info,No info,No info,No info,True,True,No info,No wifi,No info,0,2,No info,False,No info,No info,0,0,1,1,1,1,1,0,0,0,1,2,0,0,0.0,1
238,238,238,100846,4604 E Cactus Rd,s7fROnWWGUzxCQ29JZQsZQ,Phoenix,33.60178587,-111.98207450000001,Maya Ice-Cream Rolls & Indian Food,85032,46,4.5,AZ,No info,No info,FALSE,No info,True,True,No info,No wifi,No info,1,1,No info,True,TRUE,No info,0,0,0,1,0,1,1,1,0,0,1,2,0,0,0.0,0
239,239,239,100855,4273 W Thunderbird Rd,CNRXPwmj5EvSNdXnOXcpJg,Phoenix,33.61013870000001,-112.15085790000002,Desert Swirl Frozen Yogurt,85053,63,4.5,AZ,No info,No info,FALSE,No info,True,True,No info,Free wifi,No info,1,1,No info,True,No info,No info,0,0,0,1,1,1,1,0,0,0,1,2,0,0,1.0,0
240,240,240,101075,4600 E Carson St,08t3_HjbpLyPeuft6eoa5A,Pittsburgh,40.4115225,-79.9558928,Page Dairy Mart,15210,149,4.5,PA,No info,No info,TRUE,No info,True,False,No info,No wifi,No info,1,1,No info,True,TRUE,No info,0,0,1,0,1,0,1,0,0,0,1,2,0,1,0.0,0
241,241,241,101276,"7965 S Rainbow Blvd, Ste 140",RixnVQV24bc3p92mSntaVA,Las Vegas,36.04374991,-115.24399879999999,Creamberry,89139,541,4.0,NV,No info,No info,FALSE,No info,True,True,No info,Free wifi,No info,0,1,No info,False,TRUE,No info,0,0,0,1,0,1,1,0,0,0,1,2,0,0,1.0,1
242,242,242,101341,6712 Odana Rd,HOMqym6ceItYao90zNPrkg,Madison,43.0566445,-89.4974411,La Michoacana,53719,84,4.5,WI,No info,No info,FALSE,No info,True,True,No info,Free wifi,No info,1,1,No info,True,No info,No info,0,0,0,1,1,1,1,0,0,0,1,2,0,0,1.0,0
243,243,243,102092,"4624 W Sahara Ave, Ste 2",YmwSoa7TltlTY-2rVvf6wg,Las Vegas,36.146676,-115.2048989,The Sugar Cookie,89102,67,5.0,NV,No info,No info,TRUE,No info,True,True,FALSE,No wifi,No info,1,1,No info,True,No info,No info,0,0,0,0,1,0,1,0,0,0,1,2,0,0,0.0,0
244,244,244,102429,800 Langdon St,aLf_bFRNxxGdte8GrIAN4g,Madison,43.07635535,-89.39999878,Der Rathskeller,53706,36,3.5,WI,TRUE,TRUE,TRUE,loud,True,True,FALSE,Free wifi,TRUE,1,1,TRUE,True,No info,FALSE,0,0,1,0,0,0,1,0,0,0,1,1,0,0,1.0,0
245,245,245,102572,427 State St,6JOgO-HYN90eR9g-c6kNfw,Madison,43.0746721,-89.392868,Cold Stone Creamery,53703,18,3.0,WI,No info,TRUE,No info,No info,True,True,FALSE,No wifi,FALSE,0,1,TRUE,False,No info,FALSE,0,0,0,1,1,1,1,1,0,0,1,2,0,0,0.0,1
246,246,246,102786,"6525 S Fort Apache Rd, Unit 100",Z6E2Syzo_IYLIGpI5tSpRg,Las Vegas,36.0696703,-115.2983435,Dairy Queen,89148,101,2.0,NV,No info,TRUE,FALSE,quiet,True,True,FALSE,No wifi,TRUE,1,1,TRUE,True,TRUE,FALSE,0,0,1,1,1,1,1,0,0,0,1,3,0,0,0.0,0
247,247,247,102964,"7625 S Rainbow Blvd, Ste 102",MIKtRbY36F9hrTQ3lLgEzw,Las Vegas,36.049805,-115.244096,Nourish Creamery & Juice Bar,89139,170,4.5,NV,No info,No info,TRUE,No info,True,True,No info,Free wifi,No info,1,1,No info,True,TRUE,No info,0,0,0,0,1,0,1,0,0,0,1,2,0,0,1.0,0
248,248,248,103066,20835 N Cave Creek Rd,tI7dXg2UboJozj28v7sjLw,Phoenix,33.6764102,-112.0304507,Culvers,85024,80,3.0,AZ,TRUE,TRUE,FALSE,average,True,True,FALSE,Free wifi,TRUE,1,1,TRUE,True,No info,FALSE,0,0,1,1,0,1,1,0,0,0,1,2,0,0,1.0,0
249,249,249,104416,510 N Cunningham Ave,6ockUmdOBYBApEsUCJkBzA,Urbana,40.117278000000006,-88.203156,El Oasis,61802,86,5.0,IL,FALSE,TRUE,FALSE,average,True,True,TRUE,No wifi,TRUE,1,1,TRUE,True,No info,FALSE,0,0,0,1,1,1,0,0,0,0,1,2,0,0,0.0,0
250,250,250,104485,"9204 N 7th St, Unit 6",EsJ_iCNSHu_8N--XsK9Rjg,Phoenix,33.5700759,-112.0656616,Raspados Solaris,85020,34,5.0,AZ,No info,No info,FALSE,No info,True,True,No info,Free wifi,No info,1,2,No info,True,TRUE,No info,0,0,0,1,1,1,1,0,0,0,1,2,0,0,1.0,0
251,251,251,105131,"3121 W Peoria Ave, Ste 110",otlnxBQqCEmUmRONAB5elA,Phoenix,33.581511799999994,-112.12665890000001,Menchie's Frozen Yogurt,85029,49,4.0,AZ,No info,No info,FALSE,No info,True,True,No info,No wifi,No info,1,1,No info,True,No info,No info,0,0,0,1,0,1,0,1,0,0,1,2,0,0,0.0,0
252,252,252,105155,9345 S Cimarron Rd,jOSB_Sc4B3IsI5-MJluBsg,Las Vegas,36.0185143,-115.27065449999999,Poppy's Frozen Yogurt,89178,138,4.5,NV,No info,No info,FALSE,No info,True,True,No info,Free wifi,No info,1,1,No info,True,No info,No info,0,0,0,1,0,1,1,0,0,0,0,2,0,0,1.0,0
253,253,253,105593,507 Providence Rd,rH1dDxDThv_DGimcWah8fA,Charlotte,35.2034665,-80.8243724,Ben & Jerry's,28207,14,3.5,NC,No info,No info,FALSE,No info,True,True,No info,No wifi,No info,1,1,No info,True,No info,No info,0,0,0,1,0,1,1,1,0,0,1,2,0,0,0.0,0
254,254,254,105850,"2170 E Baseline Rd, Ste 136",YWwYOCbXkIxEohzURIuMhw,Phoenix,33.37937,-112.03238999999999,Cold Stone Creamery,85042,21,2.0,AZ,No info,No info,TRUE,No info,True,True,FALSE,No wifi,No info,1,1,No info,True,TRUE,No info,0,0,1,0,1,0,1,1,0,0,1,3,0,0,0.0,0
255,255,255,106011,9620 University City Blvd,9V_48ThEsfQiD1knzsEdWg,Charlotte,35.306331,-80.72165799999998,Coffee Cone Cafe,28213,29,4.5,NC,No info,No info,TRUE,No info,True,True,No info,Free wifi,TRUE,1,2,No info,True,No info,No info,0,0,0,0,1,0,1,0,0,0,1,2,0,0,1.0,0
256,256,256,106139,17015 N 7th St,EeSTRZ2F3ZSlRpm1AT4YtQ,Phoenix,33.6408019,-112.06491640000002,Cold Stone Creamery,85022,23,2.0,AZ,No info,No info,TRUE,No info,True,True,FALSE,No wifi,No info,0,2,No info,False,No info,No info,0,0,1,0,1,0,1,1,0,0,1,2,0,0,0.0,1
257,257,257,107089,210 East Trade,8lc67nrkOczT6F4B0KJLag,Charlotte,35.2253792,-80.84196440000002,Ice Shavers,28202,16,5.0,NC,No info,No info,FALSE,No info,True,True,No info,Free wifi,No info,1,1,No info,True,TRUE,No info,0,0,1,1,1,1,1,0,0,0,1,2,0,0,1.0,0
258,258,258,107499,3330 E Thomas Ave,j7LCI60GYN1KxXRiy_LMkA,Phoenix,33.48106199,-112.00992820000002,Sonic Drive-In,85018,27,2.0,AZ,FALSE,TRUE,FALSE,average,True,True,FALSE,No wifi,TRUE,0,1,TRUE,True,No info,FALSE,0,0,1,1,1,1,1,0,0,0,1,2,0,0,0.0,0
259,259,259,107500,"1127 Euclid Ave, Ste 104",ziTgeXaM7gWRnIhPtespMQ,Cleveland,41.5009874,-81.6849228,The Copper Moon,44115,50,4.5,OH,No info,No info,FALSE,No info,True,True,No info,Free wifi,FALSE,1,1,No info,True,No info,No info,0,0,0,1,0,1,0,1,0,0,1,2,0,0,1.0,0
260,260,260,107750,3300 S Las Vegas Blvd,r6b0IpBN8d-I4oe3RBL95A,Las Vegas,36.124764299999995,-115.1719639,Malena's Yogurt Plus,89109,30,2.0,NV,No info,No info,No info,No info,True,True,No info,No wifi,No info,0,1,No info,False,No info,No info,1,1,1,1,1,1,1,0,0,0,1,2,0,0,0.0,1
261,261,261,107873,111 N Race St,o13eH93qmWVNFZogkjhd9w,Urbana,40.11282253,-88.20902299,Courier Cafe,61801,347,4.0,IL,FALSE,TRUE,FALSE,average,True,True,FALSE,Free wifi,FALSE,1,1,TRUE,False,No info,FALSE,0,0,1,1,1,1,1,1,0,0,1,2,0,0,1.0,1
262,262,262,108060,13400 Brookpark Rd,vfIidkwVf_kF_APFMHIANw,Cleveland,41.4194541,-81.78483829999998,Malley's Chocolates,44135,17,4.0,OH,No info,No info,No info,No info,True,True,No info,No wifi,No info,1,2,No info,True,No info,No info,0,0,0,1,1,1,1,0,0,0,1,2,0,0,0.0,0
263,263,263,108399,"500 E Windmill Ln, Ste 175",urSuLlkYXXI5uwtKIxl9ew,Las Vegas,36.04303425,-115.15132320000001,Joe Maxx Coffee,89123,213,4.5,NV,FALSE,TRUE,TRUE,average,True,True,FALSE,Free wifi,FALSE,1,1,TRUE,False,TRUE,FALSE,0,0,1,0,1,0,1,1,0,0,1,2,0,0,1.0,1
264,264,264,108670,1735 S Rainbow Blvd,XBEx2FI2GKmsjs7eWNr7Lw,Las Vegas,36.1525834,-115.2435895,Juice 'N' Go,89146,276,4.5,NV,FALSE,TRUE,TRUE,quiet,True,True,FALSE,No wifi,FALSE,0,1,TRUE,True,No info,TRUE,0,0,0,0,1,0,1,1,0,0,0,3,0,0,0.0,0
265,265,265,109281,1308-A The Plz,dA9VCSq5g8iD1SSkRKOHaw,Charlotte,35.220861,-80.810139,Rita's Italian Ice,28205,48,4.0,NC,No info,No info,TRUE,No info,True,True,No info,Free wifi,No info,1,1,No info,True,No info,No info,0,0,0,0,1,0,0,1,0,0,1,2,0,0,1.0,0
266,266,266,109584,"7660 W Cheyenne Ave, Ste 126",MbY75S2zIFq71HJ_h5kiNQ,Las Vegas,36.21866619,-115.2616568,U-Swirl / Rocky Mountain Chocolate Factory,89129,13,4.5,NV,No info,No info,FALSE,No info,False,True,No info,Free wifi,No info,0,2,No info,True,TRUE,No info,0,0,1,1,0,1,1,1,0,0,1,2,1,0,1.0,0
267,267,267,109681,"100 E Camelback Rd, Ste 196",Ta7ALiHKasliwVxieOJEnA,Phoenix,33.51073880000001,-112.072473,Nekter Juice Bar,85012,30,4.0,AZ,No info,No info,No info,No info,True,True,No info,No wifi,No info,0,2,No info,True,No info,No info,0,0,1,1,1,1,1,0,0,0,1,2,0,0,0.0,0
268,268,268,110464,"6454 Sky Pointe Dr, Suite 110",aME5_yvkBqKH9v0ZDubIeQ,Las Vegas,36.28106810000001,-115.26139340000002,Baskin-Robbins,89131,55,2.5,NV,No info,No info,FALSE,No info,True,True,No info,No wifi,No info,1,1,No info,True,No info,No info,0,0,1,1,1,1,1,0,0,0,1,2,0,0,0.0,0
269,269,269,110672,1247 East Blvd,P9xoO-WxaazIMQI7grYUwg,Charlotte,35.2025235,-80.8450227,Menchie's Frozen Yogurt,28203,84,4.0,NC,No info,No info,FALSE,No info,True,True,No info,Free wifi,No info,1,1,No info,True,No info,No info,0,0,1,1,1,1,1,0,0,0,1,2,0,0,1.0,0
270,270,270,110947,4923 E. Chandler Blvd.,6wxfzVfke6iXRhP8yeMTeA,Phoenix,33.304759000000004,-111.97768,Zoyo Frozen Yogurt -Ahwatukee,85048,68,4.0,AZ,No info,No info,TRUE,No info,True,True,No info,Free wifi,No info,1,1,No info,True,No info,No info,0,0,0,0,1,0,1,0,0,0,1,2,0,0,1.0,0
271,271,271,111148,"16631 Lancaster Hwy, Ste 106",eC4JpckFnIVWWh8mMrTK-Q,Charlotte,35.02345855,-80.84866822,Rita's Italian Ice,28277,22,4.0,NC,No info,No info,TRUE,No info,True,True,No info,No wifi,No info,0,1,No info,True,No info,No info,0,0,0,0,1,0,1,1,0,0,1,2,0,0,0.0,0
272,272,272,111289,1825 W Deer Valley Dr,Yk8WiriuHOkAXufUqGZMyg,Phoenix,33.68319049,-112.09792220000001,Culver's,85027,130,3.5,AZ,TRUE,TRUE,FALSE,average,True,True,FALSE,Free wifi,TRUE,1,1,TRUE,True,No info,FALSE,0,0,1,1,0,1,1,0,0,0,1,2,0,0,1.0,0
273,273,273,111555,3411 Las Vegas Blvd S,_fKi0myDrskrl8xmnAKJyA,Las Vegas,36.120953899999996,-115.17211509999998,Ben & Jerry's,89109,16,3.0,NV,No info,No info,FALSE,No info,True,True,No info,No wifi,No info,0,2,No info,False,No info,No info,0,0,1,1,1,1,1,0,0,0,1,2,0,0,0.0,1
274,274,274,112111,5618 Mayfield Rd,AI7sIJMnSYVX8aLxdPVyNA,Cleveland,41.5196511,-81.477101,East Coast Original Frozen Custard,44124,68,4.5,OH,No info,No info,TRUE,No info,True,True,FALSE,No wifi,No info,1,1,No info,True,No info,No info,0,0,1,0,1,0,1,0,0,0,1,2,0,0,0.0,0
275,275,275,112243,246 Forbes Ave,JXf04dg9EBlkQFs5hf4QeQ,Pittsburgh,40.440114799999996,-80.0011745,Millie's Homemade Ice Cream,15222,65,4.0,PA,No info,No info,FALSE,No info,True,True,No info,Free wifi,No info,1,1,No info,True,No info,No info,0,0,1,1,1,1,1,0,0,0,1,2,0,0,1.0,0
276,276,276,112593,9777 Las Vegas Blvd S,odRsHBbIqljttG7TJzTIvA,Las Vegas,36.0114211,-115.1752012,Kate's Korner Ice Cream Parlor,89183,32,3.5,NV,No info,No info,TRUE,No info,True,True,No info,No wifi,No info,1,1,No info,False,No info,No info,1,1,1,0,0,0,1,0,0,0,1,2,0,0,0.0,1
277,277,277,112632,3850 S Las Vegas Blvd,4NHEIc9GtUXZmGuhFMkmwA,Las Vegas,36.0990353,-115.1753775,Yogurtland,89109,18,3.0,NV,No info,No info,No info,No info,True,True,No info,No wifi,No info,1,1,No info,False,No info,No info,0,0,0,1,1,1,1,1,0,0,1,2,0,0,0.0,1
278,278,278,112649,2482 E Desert Inn Rd,DPZrdAzdnTr7HiiDJyHybw,Las Vegas,36.13079671,-115.1166702,La Neveria,89121,51,4.0,NV,No info,No info,No info,No info,True,True,FALSE,No wifi,No info,0,1,No info,True,No info,No info,0,0,1,0,0,0,1,1,0,0,1,2,0,0,0.0,0
279,279,279,113432,1223 E Carson St,s0HXXbiItSvVQBLvyckeRA,Pittsburgh,40.429002600000004,-79.9854677,Dairy Queen,15203,12,3.0,PA,No info,No info,No info,No info,True,True,No info,No wifi,No info,1,1,No info,True,No info,No info,0,0,0,1,0,1,1,1,0,0,1,2,0,0,0.0,0
280,280,280,113872,4740 E Baseline Rd,YWjfWHizWgHSsAPGfQChXw,Phoenix,33.37869257,-111.97964409999999,Sonic Drive-In,85040,26,2.0,AZ,FALSE,TRUE,FALSE,average,True,True,FALSE,No wifi,TRUE,0,1,TRUE,True,No info,FALSE,0,0,1,1,1,1,1,0,0,0,1,2,0,0,0.0,0
281,281,281,113923,5085 E Tropicana Blvd,E-pUHcZaIzFQbnWnGHcC7w,Las Vegas,36.0998266,-115.0619457,Sonic Drive-In,89122,37,3.0,NV,FALSE,TRUE,FALSE,average,True,True,FALSE,No wifi,TRUE,1,1,TRUE,True,No info,FALSE,0,0,1,1,1,1,1,0,0,0,1,2,0,0,0.0,0
282,282,282,113979,3918 Monona Dr,YSUPAkyni4qpcHfrMOAEww,Madison,43.08308140000001,-89.3243943,Java Cat,53716,77,4.5,WI,FALSE,TRUE,TRUE,average,True,True,FALSE,Free wifi,TRUE,1,1,TRUE,True,No info,FALSE,0,0,1,0,1,0,1,0,0,0,1,2,0,0,1.0,0
283,283,283,114283,3164 E Camelback Rd,dg5cg298SXZVMo4ZEwSUtg,Phoenix,33.5110405,-112.01342199999999,The Gelato Spot,85016,172,4.0,AZ,No info,TRUE,TRUE,No info,True,True,FALSE,Free wifi,No info,1,1,No info,True,No info,FALSE,0,0,0,0,1,0,1,0,0,0,1,2,0,0,1.0,0
284,284,284,114362,3890 S Maryland Pkwy,Wq9yflrKX79xKiY__BvCoQ,Las Vegas,36.118245,-115.135727,Magnolia Ice Cream and Treats,89119,122,4.5,NV,No info,No info,FALSE,No info,False,True,FALSE,No wifi,No info,1,1,No info,True,No info,No info,0,0,0,1,0,1,1,0,0,0,1,2,1,0,0.0,0
285,285,285,114545,"905 S Grand Central Pkwy, Ste 1700",CO5ofU1HQIBf1KWvb5ysLQ,Las Vegas,36.162831,-115.159245,Shake Shack,89106,75,4.0,NV,TRUE,TRUE,FALSE,average,True,True,FALSE,No wifi,TRUE,0,2,TRUE,True,TRUE,FALSE,0,0,0,1,0,1,1,0,0,0,1,2,0,0,0.0,0
286,286,286,114571,4302 E Chandler Blvd,IUacTdoWEWEODMVFlUOOlw,Phoenix,33.30582874,-111.9907149,Sonic Drive-In,85048,56,2.5,AZ,FALSE,TRUE,FALSE,average,True,True,FALSE,No wifi,TRUE,1,1,TRUE,True,No info,FALSE,0,0,1,1,1,1,1,0,0,0,1,2,0,0,0.0,0
287,287,287,114678,3555 S Durango Dr,bRR4gsjHv0F_RnRGjQBqlg,Las Vegas,36.1250824,-115.27949070000001,CJ's Italian Ice & Custard,89147,350,4.5,NV,FALSE,TRUE,TRUE,average,True,True,FALSE,No wifi,TRUE,1,1,TRUE,True,No info,TRUE,0,0,0,0,1,0,1,0,0,0,0,2,0,0,0.0,0
288,288,288,114939,"1 E Washington St, Ste 180",wYVHHnA3ttwpbeyjNXopDQ,Phoenix,33.44781702,-112.0728209,Yogurt Time Downtown Hangout,85004,58,4.0,AZ,No info,No info,TRUE,No info,True,True,No info,Free wifi,TRUE,1,1,No info,True,No info,No info,0,0,0,0,1,0,1,0,0,0,1,2,0,0,1.0,0
289,289,289,115055,7100 N 12th St,nLX43e5KVb5wultBpWvYLw,Phoenix,33.539703100000004,-112.05631170000001,Splurge,85020,17,4.0,AZ,No info,No info,FALSE,No info,True,True,No info,Free wifi,No info,1,1,No info,True,TRUE,No info,0,0,0,1,1,1,1,0,0,0,1,2,0,0,1.0,0
290,290,290,115414,7600 Forbes Ave,GnPXUkEvX5M0YR_PVGhWgg,Pittsburgh,40.43952949,-79.89742289,Park Pizza & Cream,15221,35,4.0,PA,FALSE,TRUE,TRUE,average,True,True,TRUE,Free wifi,TRUE,1,1,TRUE,True,No info,TRUE,0,0,0,0,1,0,0,0,0,0,0,2,0,0,1.0,0
291,291,291,117336,"914 E Camelback Rd, Unit 4B",I_a74zmgR-X03LsKISWPcg,Phoenix,33.509761,-112.060884,Snoh Ice Shavery,85014,665,4.5,AZ,TRUE,TRUE,TRUE,average,True,True,FALSE,Free wifi,TRUE,1,1,TRUE,False,TRUE,FALSE,0,0,0,0,0,0,1,0,0,0,1,2,0,0,1.0,1
292,292,292,117462,13825 N 19th Ave,WpzRURptZ2FIxBmJMl4MXA,Phoenix,33.61203715,-112.099179,KamanaWana Hawaiian Treats,85023,218,4.5,AZ,No info,No info,TRUE,No info,True,True,No info,No wifi,No info,1,1,No info,False,TRUE,No info,0,0,0,0,1,0,1,1,0,0,1,2,0,0,0.0,1
293,293,293,117760,"2470 W Happy Valley Rd, Ste 1183",loeW2G8tSIp1cLD3zB1NoQ,Phoenix,33.71469525,-112.11252069999999,Urban Boba Tea House,85085,152,4.0,AZ,No info,No info,FALSE,No info,True,True,No info,Free wifi,TRUE,1,1,No info,True,TRUE,No info,0,0,0,1,1,1,1,0,0,0,1,2,0,0,1.0,0
294,294,294,117775,4324 W Indian School Rd,L-_-9JNAb6UDyq7waykX2A,Phoenix,33.495912,-112.15280359999998,Senor Sushi,85031,201,3.5,AZ,TRUE,TRUE,TRUE,average,True,True,FALSE,Free wifi,FALSE,1,2,TRUE,False,No info,FALSE,0,0,1,0,0,0,1,1,0,0,1,2,0,0,1.0,1
295,295,295,117841,"6830 S Rainbow Blvd, Ste 140",DyCv2ubxeygyOUWJ4lnewg,Las Vegas,36.064831700000006,-115.24173700000001,Sweetspot Nitrogen Ice Cream & Boba Tea,89118,236,4.5,NV,No info,No info,FALSE,No info,True,True,No info,Free wifi,FALSE,0,1,No info,True,No info,No info,0,0,0,1,1,1,1,1,0,0,1,2,0,0,1.0,0
296,296,296,117994,1831 South Blvd,Vx00mzQudJe-cHtM6Drp7g,Charlotte,35.21063423,-80.85835381,Dunkin' Donuts,28203,35,3.0,NC,No info,No info,TRUE,No info,True,True,No info,Free wifi,FALSE,1,1,No info,True,No info,No info,0,0,1,0,1,0,1,1,0,0,1,2,0,0,1.0,0
297,297,297,118792,2102 W Beltline Hwy,1GGLx6k4SgM-MykB5TTiJg,Madison,43.036029600000006,-89.41506070000001,Culver's,53713,53,4.0,WI,FALSE,TRUE,FALSE,average,False,True,FALSE,Free wifi,TRUE,1,1,TRUE,True,No info,FALSE,1,1,1,1,1,1,1,0,0,0,1,2,1,0,1.0,0
298,298,298,119007,4 E Sky Harbor Blvd,fEqbLLqRw0fQrHM1xB070A,Phoenix,33.43594241,-111.9973125,Yogurtology,85034,12,3.0,AZ,No info,No info,FALSE,No info,True,True,No info,Free wifi,No info,0,1,No info,False,No info,No info,0,0,0,1,0,1,1,1,0,0,1,2,0,0,1.0,1
299,299,299,119397,5223 N Central Ave,mPfdYJj4d5KBPINDkaZY-Q,Phoenix,33.51350364,-112.07338940000001,Churn,85012,820,4.5,AZ,FALSE,TRUE,TRUE,average,True,True,FALSE,Free wifi,TRUE,1,1,TRUE,True,No info,FALSE,0,0,1,0,1,0,1,0,0,0,1,2,0,0,1.0,0
300,300,300,119618,401 S Tryon St,0euwvUfYNkEw_D5vafuAow,Charlotte,35.22461699999999,-80.846426,Cheesecake Carousel,28202,16,4.0,SC,No info,No info,TRUE,No info,False,True,TRUE,Free wifi,No info,1,1,No info,False,FALSE,No info,0,0,0,0,1,0,0,0,0,1,1,2,1,0,1.0,1
301,301,301,119810,7745 S 51st Ave,2THWm-2RT0MtkH-BKN6-FQ,Phoenix,33.37608981,-112.1678352,Sonic Drive-In,85339,16,2.5,AZ,FALSE,TRUE,FALSE,loud,True,True,FALSE,No wifi,TRUE,0,1,FALSE,False,No info,FALSE,0,0,1,1,1,1,1,0,1,0,1,1,0,0,0.0,1
302,302,302,121246,468 State St,Lf5qFOWu5qg1zHYkZQgeNQ,Madison,43.0748325,-89.39294740000004,Chocolate Shoppe Ice Cream,53703,126,4.0,WI,No info,No info,FALSE,No info,True,True,No info,Paid wifi,No info,1,1,No info,True,No info,No info,0,0,1,1,0,1,1,1,0,0,1,2,0,0,,0
303,303,303,121567,"4302 E Ray Rd, Ste 102",xfadwwQ7RICcAeinHz5YVQ,Phoenix,33.3203429,-111.9918903,Smallcakes Cupcakery and Creamery,85044,62,4.5,AZ,No info,No info,FALSE,No info,False,True,FALSE,Free wifi,No info,1,2,No info,False,TRUE,No info,0,0,0,1,1,1,1,0,0,0,1,2,1,0,1.0,1
304,304,304,121968,"5410 E High St, Ste 103",xQ2LR8H0Wrdwm3oZLIOeow,Phoenix,33.675989200000004,-111.96449879999999,Yogurt Time,85054,11,4.0,AZ,No info,No info,TRUE,No info,True,True,No info,Free wifi,TRUE,1,1,No info,True,TRUE,No info,0,0,1,0,0,0,1,0,0,0,1,2,0,0,1.0,0
305,305,305,122159,3780 S Las Vegas Blvd,LQg6wHIu5SGsWI0U5siclw,Las Vegas,36.102682,-115.17821,Shake Shack,89109,165,4.0,NV,TRUE,TRUE,No info,loud,True,True,FALSE,No wifi,TRUE,0,2,TRUE,True,No info,FALSE,0,0,0,0,0,0,1,0,0,0,1,1,0,0,0.0,0
306,306,306,122284,"2501 W Happy Valley Rd, Ste 50-1260",Tg3PIM1Ye471KHirDZ0JjA,Phoenix,33.711434000000004,-112.11138999999999,Cold Stone Creamery,85085,21,3.0,AZ,No info,No info,No info,No info,True,True,No info,No wifi,No info,1,1,No info,True,No info,No info,0,0,0,1,1,1,1,0,0,0,1,3,0,0,0.0,0
307,307,307,122552,528 Euclid Ave,7xWbvNsFeKaJTurdHFrnqw,Cleveland,41.4998273,-81.6892363,Colossal Cupcakes,44115,260,3.0,OH,No info,No info,TRUE,No info,True,True,TRUE,Free wifi,FALSE,1,2,No info,True,TRUE,No info,0,0,0,0,1,0,0,1,0,0,1,3,0,0,1.0,0
308,308,308,123731,4301 E Towne Blvd,ibVJ52iBKcheyLNOPGU8jg,Madison,43.125359499999995,-89.3084236,Culver's,53704,27,3.0,WI,TRUE,TRUE,FALSE,average,True,True,FALSE,Free wifi,TRUE,1,1,TRUE,True,No info,FALSE,0,0,1,1,0,1,1,0,0,0,1,2,0,0,1.0,0
309,309,309,123752,7245 S Durango Dr,RqpL5Y50F9exjyHfpTzp3w,Las Vegas,36.056580600000004,-115.279752,Sonic Drive-In,89113,142,2.5,NV,FALSE,TRUE,FALSE,average,True,True,FALSE,No wifi,TRUE,1,1,TRUE,True,No info,FALSE,1,1,1,1,1,1,1,0,0,0,1,2,0,0,0.0,0
310,310,310,123895,740 S. Rampart,iwx-fC72oTDMnDuetYtjnw,Las Vegas,36.163441799999994,-115.28936110000001,Pinkberry,89145,91,4.0,NV,No info,No info,TRUE,No info,True,True,No info,No wifi,No info,1,1,No info,True,TRUE,No info,0,0,0,0,1,0,1,1,0,0,1,2,0,0,0.0,0
311,311,311,124545,"3667 Las Vegas Blvd S, Ste 1-H504",xgzOg_sAhwLnL5LCuDkyrA,Las Vegas,36.11068,-115.169568,Red Mango,89109,24,2.5,NV,No info,No info,FALSE,No info,True,True,No info,No wifi,No info,1,1,No info,False,No info,No info,0,0,1,1,1,1,1,0,0,0,1,2,0,0,0.0,1
312,312,312,124978,6455 W Sahara Ave,suLXZUWsh53kzoTVnO4gng,Las Vegas,36.1435354,-115.23302959999998,Sonic Drive-In,89102,105,2.5,NV,FALSE,TRUE,FALSE,average,True,True,FALSE,No wifi,TRUE,1,1,TRUE,True,No info,FALSE,1,1,1,1,1,1,1,0,0,0,1,2,0,0,0.0,0
313,313,313,126136,2107 South Blvd,QlIW78umKyE5d0BLpPh1-w,Charlotte,35.20786670000001,-80.8598976,Mr. K's Soft Ice Cream & Drive In,28203,148,4.0,NC,FALSE,TRUE,FALSE,average,True,True,FALSE,No wifi,TRUE,1,1,TRUE,True,No info,FALSE,0,0,0,1,1,1,1,0,0,0,1,2,0,0,0.0,0
314,314,314,126423,4021 N 75th Ave,cWjHc-Fs0yXT7q5gCzAeTA,Phoenix,33.49379098,-112.220425,Baskin Robbins,85033,12,3.0,AZ,No info,No info,FALSE,No info,True,True,No info,No wifi,No info,0,1,No info,True,No info,No info,0,0,1,1,0,1,1,1,0,0,1,2,0,0,0.0,0
315,315,315,126823,4161 S Eastern Ave,u2kQSydBjZkGyX5OWLQROA,Las Vegas,36.113004600000004,-115.12036119999999,La Flor Es Michoacan,89119,31,4.0,NV,TRUE,TRUE,TRUE,No info,True,True,FALSE,No wifi,TRUE,1,1,TRUE,True,No info,FALSE,0,0,1,0,0,0,1,0,0,0,1,2,0,0,0.0,0
316,316,316,127011,"710 E Union Hills Dr, Ste 14A",zf3g45VCTZ8rG79qKu4U2w,Phoenix,33.6560729,-112.0641072,Water Well,85024,11,3.5,AZ,No info,No info,No info,No info,True,True,No info,Free wifi,No info,0,1,No info,True,No info,No info,0,0,0,1,0,1,1,1,0,0,1,2,0,0,1.0,0
317,317,317,127467,3850 S Las Vegas Blvd,mxuUDbstSrPf2OVfjXKpBA,Las Vegas,36.098971,-115.17558700000001,Dairy Queen,89109,13,2.5,NV,TRUE,TRUE,No info,No info,True,True,FALSE,Free wifi,FALSE,0,1,TRUE,False,No info,FALSE,0,0,1,1,0,1,1,1,0,0,1,2,0,0,1.0,1
318,318,318,127510,6070 S Rainbow Blvd,MDOPwRx9FmfzkUqIxw4yLQ,Las Vegas,36.078505299999996,-115.24166640000001,Lucy's Waffles & Ice Cream,89118,25,4.5,NV,TRUE,TRUE,FALSE,No info,True,True,FALSE,Free wifi,FALSE,1,1,TRUE,False,TRUE,FALSE,0,0,1,1,0,1,1,1,0,0,1,2,0,0,1.0,1
319,319,319,128081,2035 E 4th St,WHlbUb5SNdXDKYfkNDo89A,Cleveland,41.4991834,-81.6900959,Pickwick & Frolic Restaurant and Club,44115,145,3.5,OH,TRUE,FALSE,FALSE,average,True,True,FALSE,Free wifi,TRUE,0,2,TRUE,True,TRUE,TRUE,0,0,0,1,0,1,1,0,0,0,0,2,0,0,1.0,0
320,320,320,128452,2734 W Camelback Rd,O3fzOdRgcd5UFjymimyJjQ,Phoenix,33.5096846,-112.11845600000001,Dairy Queen,85017,30,3.0,AZ,FALSE,TRUE,No info,No info,True,True,FALSE,No wifi,TRUE,0,2,FALSE,False,No info,FALSE,0,0,1,1,1,1,1,0,1,0,1,2,0,0,0.0,1
321,321,321,128576,"4480 Paradise Rd, Unit 475",L79b_FccWEKr-lON9tx5-g,Las Vegas,36.108897999999996,-115.151261,Insomnia Cookies,89169,33,4.0,NV,No info,No info,No info,No info,True,True,TRUE,Free wifi,No info,0,2,No info,False,No info,No info,1,1,1,1,1,1,0,0,0,0,1,2,0,0,1.0,1
322,322,322,129388,"6530 S Decatur Blvd, Ste 130",Ned-RPOqD9I6cQULTpk9vg,Las Vegas,36.0711489,-115.20739579999999,Sunrise Donuts,89118,21,3.5,NV,No info,No info,No info,No info,True,True,No info,No wifi,No info,1,1,No info,True,No info,No info,1,1,1,0,1,0,1,0,0,0,1,2,0,0,0.0,0
323,323,323,129489,800 Langdon St,GL5FwQgLSnlFpxdAnuP_hw,Madison,43.07620281,-89.39942677,Daily Scoop In Memorial Union,53706,51,4.5,WI,No info,No info,FALSE,No info,True,True,No info,Free wifi,No info,1,1,No info,True,No info,No info,0,0,1,1,0,1,1,1,0,0,1,2,0,0,1.0,0
324,324,324,129578,2520 N 16th St,hgrbo2EvuhDiKvFObqe1wA,Phoenix,33.475578999999996,-112.0480146,Realeza Michoacana,85006,28,4.0,AZ,No info,No info,TRUE,No info,True,True,No info,No wifi,No info,1,1,No info,True,No info,No info,0,0,1,0,1,0,1,0,0,0,1,2,0,0,0.0,0
325,325,325,130151,"9009 Jm Keynes Dr, Ste 3",pvNlEkUozt6B1BhGnsj77g,Charlotte,35.31057070000001,-80.749285,Fruiticup,28262,57,3.5,NC,No info,No info,FALSE,No info,True,True,No info,No wifi,No info,0,1,No info,True,No info,No info,0,0,1,1,1,1,1,0,0,0,1,2,0,0,0.0,0
326,326,326,130197,9516 W Flamingo Rd,1Vn_lex3LGGwuTo-xeJnww,Las Vegas,36.11574304,-115.29964640000001,Yogurtland,89147,131,4.0,NV,No info,No info,FALSE,No info,True,True,No info,Free wifi,No info,1,1,No info,True,No info,No info,0,0,1,1,0,1,1,0,0,0,0,2,0,0,1.0,0
327,327,327,130277,377 N Nellis Blvd,DDs5YMhAjnP6oA5-eGw_TQ,Las Vegas,36.17013092,-115.06274750000001,Sonic Drive-In,89110,36,2.0,NV,FALSE,TRUE,FALSE,average,True,True,FALSE,No wifi,TRUE,0,1,TRUE,True,No info,FALSE,1,1,1,1,1,1,1,0,0,0,1,2,0,0,0.0,0
328,328,328,130487,"5355 Ballantyne Commons Pkwy, Ste 100",vue4UI9o6wI3p0q3Gq4liw,Charlotte,35.06263861,-80.77354594,The Local Scoop,28277,53,4.5,NC,No info,No info,TRUE,No info,True,True,No info,Free wifi,No info,1,2,No info,True,TRUE,No info,0,0,0,0,1,0,1,1,0,0,1,2,0,0,1.0,0
329,329,329,130705,"875 S Grand Central Pkwy, Ste 1490",oL_fYqSHG63vR0TBMyoo_A,Las Vegas,36.163691,-115.157758,Green Leaf's & Bananas,89106,26,2.0,NV,TRUE,TRUE,No info,No info,True,True,FALSE,No wifi,TRUE,1,2,TRUE,False,No info,FALSE,0,0,0,1,0,1,1,0,0,0,1,2,0,0,0.0,1
330,330,330,131436,"4730 E Indian School Rd, Ste 113",Hv_F1yErD0slkYCI1V9SPw,Phoenix,33.49529001,-111.97987979999999,Rita's Italian Ice,85018,59,4.5,AZ,No info,No info,TRUE,No info,True,True,No info,No wifi,No info,1,1,No info,True,TRUE,No info,0,0,0,0,1,0,1,0,0,0,1,2,0,0,0.0,0
331,331,331,132290,5529 Walnut St,0y9Bjze2woK_CZ_S8ijrUQ,Pittsburgh,40.451702000000004,-79.93275849999998,Happy Berry Frozen Yogurt,15232,29,3.0,PA,No info,No info,FALSE,No info,True,True,No info,No wifi,No info,1,1,No info,True,No info,No info,0,0,0,1,1,1,1,0,0,0,1,2,0,0,0.0,0
332,332,332,132427,"7060 S Rainbow Blvd, Ste 110",9yFqdZa0osahV6qjFJ_Saw,Las Vegas,36.0603562,-115.2417507,Yogurtland,89118,74,4.0,NV,No info,No info,TRUE,No info,True,True,No info,Free wifi,No info,1,1,No info,True,TRUE,No info,0,0,1,0,1,0,1,0,0,0,1,2,0,0,1.0,0
333,333,333,132554,4656 Cottage Grove Rd,_D7rUvTYVivYBDeGL_gTVQ,Madison,43.0852308,-89.3012718,Dairy Queen,53716,20,1.0,WI,No info,No info,FALSE,No info,True,True,No info,No wifi,No info,1,1,No info,True,No info,No info,0,0,1,1,1,1,1,0,0,0,1,2,0,0,0.0,0
334,334,334,133809,"3645 S Las Vegas Blvd, Unit 102",6SspP-R5U6BcnfxoqGgqeQ,Las Vegas,36.11422728,-115.1722658,Marash Authentic Turkish Ice Cream,89109,97,4.0,NV,No info,No info,FALSE,No info,True,True,No info,Free wifi,No info,1,1,No info,True,TRUE,No info,1,1,1,1,1,1,1,1,0,0,1,2,0,0,1.0,0
335,335,335,134077,"2605 S Decatur Blvd, Ste 101",WszfIMvKJ5AVsy9zQMwdig,Las Vegas,36.142228,-115.20934199999999,Frost N' Roll,89102,33,5.0,NV,No info,No info,FALSE,No info,True,True,No info,Free wifi,No info,1,1,No info,True,TRUE,No info,0,0,0,1,1,1,1,0,0,0,1,2,0,0,1.0,0
336,336,336,136642,2840 University Ave,lqtybK6_GjSqhK8U55Mc7w,Madison,43.0752466,-89.43766668,Sa-Bai Thong,53705,140,3.5,WI,FALSE,TRUE,TRUE,quiet,True,True,TRUE,No wifi,FALSE,1,2,TRUE,True,No info,TRUE,0,0,0,0,1,0,0,1,0,0,0,3,0,0,0.0,0
337,337,337,136686,"7510 Pineville Matthews Rd, Ste 10",AQ3C9jSx1wBU_TUIVj366A,Charlotte,35.0880249,-80.84560649999997,Jolly Rolls Ice Cream,28226,11,2.0,NC,No info,No info,No info,No info,False,True,No info,No wifi,No info,0,1,No info,True,No info,No info,0,0,0,1,0,1,1,1,0,0,1,2,1,0,0.0,0
338,338,338,136689,3760 E Desert Inn Rd,zXFt7RPkLRigoERIuBNEsg,Las Vegas,36.130666999999995,-115.09262659999999,La Flor De Michoacan,89121,18,4.0,NV,No info,No info,No info,No info,True,True,No info,No wifi,No info,0,1,No info,True,No info,No info,0,0,0,1,1,1,1,1,0,0,1,2,0,0,0.0,0
339,339,339,136861,"5625 S Rainbow Blvd, Ste D",VmspRdKauEargr8YX1oL-Q,Las Vegas,36.086412,-115.24382720000001,Mixers Ice Cream & Boba,89118,162,4.5,NV,No info,No info,TRUE,No info,True,True,No info,No wifi,FALSE,1,1,No info,True,TRUE,No info,0,0,0,0,1,0,1,1,0,0,1,2,0,0,0.0,0
340,340,340,137075,"5040 Boulder Hwy, Ste 110",Z3y47L3EY-axAEVbwmXZaA,Las Vegas,36.11110328,-115.064167,Thrifty Ice Cream,89122,28,3.5,NV,No info,No info,FALSE,No info,True,True,No info,No wifi,No info,0,1,No info,False,No info,No info,0,0,1,1,1,1,1,0,0,0,1,2,0,0,0.0,1
341,341,341,137445,"5060 S Fort Apache, Ste 175",Cg5jq44pMnGpzyIZoxFS6A,Las Vegas,36.0967114,-115.29652800000001,5 Below Creamery,89148,40,4.5,NV,No info,No info,TRUE,No info,True,True,No info,Free wifi,No info,1,1,No info,True,FALSE,No info,0,0,0,0,1,0,1,0,0,1,1,2,0,0,1.0,0
342,342,342,137582,9600 Perry Hwy,2NXb5LHngfZppLDOZDEhSg,Pittsburgh,40.582411,-80.037008,Bruster's Real Ice Cream,15237,16,4.0,PA,No info,No info,TRUE,No info,True,True,No info,No wifi,No info,1,1,No info,True,No info,No info,0,0,0,0,1,0,1,0,0,0,1,2,0,0,0.0,0
343,343,343,137586,"8129 N 35th Ave, Ste 1",dq36AQPI2QsydKLXTnzb1A,Phoenix,33.5555964,-112.13373200000001,Water N Ice,85051,11,4.0,AZ,No info,No info,No info,No info,False,True,No info,No wifi,No info,0,2,No info,True,No info,No info,0,0,0,1,0,1,1,1,0,0,1,2,1,0,0.0,0
344,344,344,138113,2082 E Warm Springs,ccd6w9w81PUBmtV1DFXgig,Las Vegas,36.057903,-115.12348600000001,Sonic Drive-In,89119,113,2.5,NV,FALSE,TRUE,FALSE,average,True,True,FALSE,No wifi,TRUE,1,1,TRUE,True,No info,FALSE,1,1,1,1,1,1,1,0,0,0,1,2,0,0,0.0,0
345,345,345,138117,720 Governor Morrison St,OGkpTgu4BGPW4nzl7IbmAA,Charlotte,35.157032,-80.823983,Golden Cow Creamery,28211,31,4.0,NC,No info,No info,No info,No info,True,True,No info,No wifi,No info,0,2,No info,True,No info,No info,0,0,0,1,0,1,1,0,0,0,1,2,0,0,0.0,0
346,346,346,138277,3424 W Southern Ave,g7EXpsDsd-xLQVajvEUnrg,Phoenix,33.39262171,-112.1322805,Fruitlicious,85339,11,1.5,AZ,No info,No info,No info,No info,True,True,No info,No wifi,No info,1,2,No info,False,No info,No info,0,0,0,1,1,1,1,1,0,0,1,2,0,0,0.0,1
347,347,347,138413,"20910 N Tatum Blvd, Ste 160",KcU5W_kkyigHHsUO0xiFSA,Phoenix,33.67450847,-111.980797,Yogurt Plus,85050,87,3.0,AZ,No info,No info,FALSE,No info,True,True,No info,No wifi,No info,1,1,No info,True,No info,No info,0,0,0,1,1,1,1,0,0,0,1,2,0,0,0.0,0
348,348,348,138915,232 S Highland Ave,Z2NIEKTVVP2nEmOF4jNxqQ,Pittsburgh,40.4578745,-79.92535809999998,Millie's Homemade Ice Cream,15206,310,4.5,PA,FALSE,TRUE,TRUE,average,True,True,FALSE,Free wifi,TRUE,1,1,TRUE,True,No info,FALSE,0,0,0,0,1,0,1,0,0,0,1,2,0,0,1.0,0
349,349,349,138950,"6825 W Russell Rd, Ste 135",puJy3AfEZLNbRmr7WWHOLg,Las Vegas,36.08452308,-115.241495,Fluff Ice,89118,126,4.5,NV,No info,No info,TRUE,No info,True,True,No info,Free wifi,No info,0,1,No info,False,TRUE,No info,0,0,0,0,0,0,1,1,0,0,1,2,0,0,1.0,1
350,350,350,139054,6174 W Flamingo Rd,G03yt8WuN1v0bCD8mvoDiA,Las Vegas,36.1152213,-115.22688659999999,Fresh Sub,89103,94,4.5,NV,TRUE,TRUE,TRUE,quiet,True,True,TRUE,Free wifi,FALSE,0,1,TRUE,True,TRUE,FALSE,0,0,0,0,0,0,0,1,0,0,1,3,0,0,1.0,0
351,351,351,139184,"2725 South Blvd, Ste B",QifB5xsZflXW7mlq5PmVIg,Charlotte,35.20011320000001,-80.8663785,Nekter Juice Bar,28209,54,4.5,NC,No info,No info,FALSE,No info,True,True,No info,Free wifi,No info,1,2,No info,True,No info,No info,0,0,1,1,1,1,1,0,0,0,1,2,0,0,1.0,0
352,352,352,139651,7595 W Washington Ave,KJM7tOTqSqqe414cKs6L7g,Las Vegas,36.18108785,-115.2595263,U-Swirl Frozen Yogurt,89128,75,3.5,NV,No info,No info,FALSE,No info,True,True,No info,No wifi,No info,1,1,No info,True,TRUE,No info,0,0,0,1,1,1,1,0,0,0,1,2,0,0,0.0,0
353,353,353,139903,"1600 E Woodlawn Rd, Ste 110",OO2-SWrNXyZGoytcaNIH0g,Charlotte,35.171873,-80.849032,Ben & Jerry's,28209,21,4.0,NC,No info,No info,TRUE,No info,True,True,No info,Free wifi,No info,1,1,No info,True,No info,No info,0,0,0,0,1,0,1,1,0,0,1,2,0,0,1.0,0
354,354,354,141374,"3685 S Decatur Blvd, Ste 19",2Q9Mgkc7iFHuKoD_z7kJkQ,Las Vegas,36.122741,-115.208699,Lokuras,89103,65,4.0,NV,TRUE,TRUE,No info,No info,True,True,FALSE,No wifi,FALSE,0,1,TRUE,True,No info,FALSE,0,0,1,1,0,1,1,1,0,0,1,2,0,0,0.0,0
355,355,355,141482,"9484 W Flamingo Rd, Ste 165",sxNMGQwUuaDsviR4BtuX0g,Las Vegas,36.115792799999994,-115.2987139,Rolled Ice Cream,89147,618,4.0,NV,No info,No info,FALSE,No info,True,True,No info,Free wifi,No info,1,1,No info,True,TRUE,No info,0,0,0,1,0,1,1,0,0,0,1,2,0,0,1.0,0
356,356,356,142022,1431 Central Ave,vjm0zAgXHehrMmX1ivY6wg,Charlotte,35.2206557,-80.8137755,Dairy Queen,28205,31,3.0,NC,No info,TRUE,FALSE,No info,True,True,FALSE,No wifi,No info,1,1,TRUE,True,No info,FALSE,0,0,0,1,0,1,1,0,0,0,1,2,0,0,0.0,0
357,357,357,142203,"5035 S Fort Apache Rd, Ste 104",cNx3qzQ55JXpjZEt4lc7Tg,Las Vegas,36.097675,-115.2976027,Recess Italian Ice & Desserts,89148,383,4.0,NV,No info,No info,FALSE,No info,True,True,No info,Free wifi,TRUE,0,1,No info,True,TRUE,No info,0,0,0,1,1,1,1,0,0,0,1,2,0,0,1.0,0
358,358,358,142327,"10170 W Tropicana Ave, Ste 150",nlsibvBeSc8vfus2KuQatA,Las Vegas,36.10151338,-115.31443390000001,Handel's Homemade Ice Cream & Yogurt,89147,357,4.5,NV,No info,No info,TRUE,No info,True,True,FALSE,No wifi,No info,0,1,No info,True,TRUE,No info,0,0,1,0,1,0,1,0,0,0,1,2,0,0,0.0,0
359,359,359,142653,11444 Uptown Ave,oVZsUPIMdS8Vk7Jip5l0_g,Cleveland,41.50962556,-81.60362501,Mitchell's Homemade Ice Cream - Uptown,44106,110,4.5,OH,No info,No info,FALSE,No info,True,True,No info,Free wifi,No info,0,1,No info,True,No info,No info,0,0,1,1,1,1,1,0,0,0,1,2,0,0,1.0,0
360,360,360,143504,"3663 S Las Vegas Blvd, Ste 1240",4JHGVuanHAu5n8DxvVcuVw,Las Vegas,36.10929769,-115.17195190000001,Sugar Factory,89109,198,3.0,NV,No info,No info,FALSE,No info,True,True,No info,No wifi,No info,1,2,No info,False,No info,No info,1,1,1,1,1,1,1,0,0,0,1,2,0,0,0.0,1
361,361,361,143573,1920 Camden Rd,eygcJ6o3elw-IgiYhml7lQ,Charlotte,35.2110826,-80.8610434,Jeni's Splendid Ice Creams,28203,89,4.5,NC,No info,No info,TRUE,No info,True,True,No info,No wifi,No info,0,2,No info,True,No info,No info,0,0,0,0,1,0,1,1,0,0,1,2,0,0,0.0,0
362,362,362,144375,13855 Conlan Cir,vN7tRomv8VndTxIZDKG7yQ,Charlotte,35.05534853,-80.85164756,Sweet Frog Premium Frozen Yogurt,28277,16,3.0,NC,No info,No info,FALSE,No info,True,True,No info,No wifi,No info,1,2,No info,True,No info,No info,0,0,0,1,1,1,1,0,0,0,1,2,0,0,0.0,0
363,363,363,144476,"9229 Lawyers Rd, Ste E",42gnKgy6ryfQ4QBtmyVgqA,Charlotte,35.1869568,-80.6873316,Happy Grill,28227,21,4.5,NC,TRUE,TRUE,FALSE,average,True,True,FALSE,No wifi,FALSE,0,1,TRUE,False,No info,FALSE,0,0,0,1,0,1,1,1,0,0,1,2,0,0,0.0,1
364,364,364,145046,"9795 W Charleston Blvd, Ste 101",MOATc61QdKLNygLOfV-HSQ,Las Vegas,36.158564500000004,-115.31118629999999,U-Swirl Frozen Yogurt,89117,87,3.0,NV,No info,No info,TRUE,No info,True,True,FALSE,No wifi,No info,1,1,No info,True,TRUE,No info,0,0,1,0,1,0,1,0,0,0,1,2,0,0,0.0,0
365,365,365,145358,2732 Wilkinson Blvd,_V-1gwVcw5Nd0e-8DsJ9RA,Charlotte,35.22444779999999,-80.88718100000001,Dairy Queen,28208,16,4.0,NC,FALSE,TRUE,FALSE,No info,True,True,FALSE,No wifi,TRUE,1,1,TRUE,True,No info,FALSE,0,0,1,1,1,1,1,0,0,0,1,2,0,0,0.0,0
366,366,366,145426,13201 Shaker Sq,u1qzJu0JwbKU-HjIFjq8kw,Cleveland,41.484680499999996,-81.5899745,Dewey's Coffee House,44120,83,4.0,OH,TRUE,TRUE,FALSE,average,True,True,FALSE,Free wifi,TRUE,1,1,TRUE,True,No info,FALSE,0,0,1,1,0,1,1,0,0,0,1,2,0,0,1.0,0
367,367,367,145999,"1535 Elizabeth Ave, Ste 100",bc3qgRXb8mln0CGgUCTdug,Charlotte,35.2140739,-80.826589,Elizabeth Creamery,28204,122,4.0,NC,No info,No info,FALSE,No info,True,True,No info,No wifi,No info,1,1,No info,True,No info,No info,0,0,0,1,0,1,1,0,0,0,1,2,0,0,0.0,0
368,368,368,146222,"4215 Spring Mountain Rd, Ste B106B",2OJrznHaA4Gz_KYbQnAuzQ,Las Vegas,36.125406700000006,-115.19594140000001,Volcano Tea House,89102,381,3.5,NV,No info,No info,FALSE,No info,True,True,No info,Free wifi,TRUE,0,1,No info,True,No info,No info,0,0,1,1,1,1,1,0,0,0,1,2,0,0,1.0,0
369,369,369,146278,5501 Josh Birmingham Pkwy,LMi27OYR2CeQnytc9CsfLg,Charlotte,35.220571,-80.943522,Yovana,28263,11,3.5,NC,No info,No info,No info,No info,True,True,No info,Free wifi,No info,0,2,No info,True,No info,No info,0,0,0,1,0,1,1,1,0,0,1,2,0,0,1.0,0
370,370,370,146896,3154 W Sahara Ave,WHdmQ-zPYYTJUqaUOfNpkQ,Las Vegas,36.144689299999996,-115.184114,Dairy Queen,89102,53,2.0,NV,TRUE,TRUE,FALSE,average,True,True,FALSE,No wifi,FALSE,1,1,TRUE,True,TRUE,FALSE,0,0,1,1,0,1,1,1,0,0,1,2,0,0,0.0,0
371,371,371,148395,"8414 Farm Rd, Ste 150",lsXRQ6DxyrbMFhl8croN8Q,Las Vegas,36.3007218,-115.27939140000001,Yuki Shaved Snow,89131,111,4.0,NV,No info,No info,FALSE,No info,True,True,No info,No wifi,No info,1,1,No info,True,No info,No info,0,0,0,1,1,1,1,1,0,0,1,2,0,0,0.0,0
372,372,372,149283,1919 W Deer Vly,zusXbyXnJfS1Q-pZE9elmQ,Phoenix,33.6833052,-112.101049,Sonic Drive-In,85027,20,3.0,AZ,FALSE,TRUE,FALSE,average,True,True,FALSE,No wifi,TRUE,0,1,TRUE,True,No info,FALSE,0,0,1,1,1,1,1,0,0,0,1,2,0,0,0.0,0
373,373,373,150561,"1121 S Decatur Blvd, Ste 120",UdTgTjN0bo9JNPNkECuMrA,Las Vegas,36.15837970000001,-115.20528689999999,Cold Stone Creamery,89102,12,2.5,NV,No info,No info,FALSE,No info,True,True,FALSE,No wifi,No info,1,1,No info,True,No info,No info,0,0,0,1,0,1,1,1,0,0,1,2,0,0,0.0,0
374,374,374,150684,"4825 E Charleston Blvd, Ste 2",aEB-w-L4nhNe0wya_AHOKA,Las Vegas,36.1587537,-115.0693267,Cali's Scoops,89104,17,4.5,NV,No info,No info,FALSE,No info,True,True,No info,No wifi,No info,0,1,No info,True,No info,No info,0,0,0,1,1,1,1,0,0,0,1,2,0,0,0.0,0
375,375,375,151434,"3377 S Las Vegas Blvd, Ste 2255",0FPiudg5-syHhU0t88rgSA,Las Vegas,36.1220157,-115.16964979999999,Sloan's Ice Cream,89109,44,3.5,NV,No info,No info,FALSE,No info,True,True,No info,No wifi,No info,1,2,No info,False,No info,No info,0,0,1,1,1,1,1,1,0,0,1,2,0,0,0.0,1
376,376,376,151496,"4344 W Indian School Rd, Ste 29",X1r8ugVdi4r6siqkNmIkkg,Phoenix,33.497482500000004,-112.152895,Raspados Imperial,85031,15,5.0,AZ,TRUE,TRUE,TRUE,No info,True,True,FALSE,Free wifi,TRUE,1,2,TRUE,False,TRUE,FALSE,0,0,0,0,0,0,1,0,0,0,1,2,0,0,1.0,1
377,377,377,151607,"3415 W Glendale Ave, Ste 24",C0EXdaVIuFf0smZj3Qj5Qg,Phoenix,33.5371638,-112.1329258,Brimley's Water & Ice,85051,11,5.0,AZ,No info,No info,FALSE,No info,False,True,No info,No wifi,No info,1,1,No info,False,TRUE,No info,0,0,0,1,0,1,1,1,0,0,1,2,1,0,0.0,1
378,378,378,152017,4865 S Pecos Rd,_ewxwEwJM-IYfIYnKpQOZw,Las Vegas,36.1008099,-115.10175819999999,Mexicali Raspados,89121,67,4.0,NV,TRUE,TRUE,No info,average,True,True,FALSE,No wifi,FALSE,0,1,TRUE,False,No info,FALSE,0,0,0,1,0,1,1,1,0,0,1,2,0,0,0.0,1
379,379,379,152753,3500 S Edmond St,K9Zm2rrQocTL8HZFnzl_-Q,Las Vegas,36.1260181,-115.21228059999999,Cafe No Fur,89103,56,3.5,NV,TRUE,FALSE,TRUE,loud,True,True,TRUE,Free wifi,TRUE,1,2,TRUE,True,FALSE,TRUE,1,1,0,0,0,0,0,0,0,1,0,1,0,0,1.0,0
380,380,380,153223,2303 N 7th St,zOL260xaXDYZZPBItzALxQ,Phoenix,33.473236,-112.06482,MacAlpine's Diner & Soda Fountain,85006,346,4.0,AZ,FALSE,TRUE,FALSE,average,True,True,FALSE,No wifi,FALSE,1,1,TRUE,True,No info,TRUE,0,0,0,1,1,1,1,1,0,0,0,2,0,0,0.0,0
381,381,381,154030,314 Fifth Ave,dRbmeC5hl211hH-WeMtv-g,Pittsburgh,40.4404289,-79.9999508,The Milk Shake Factory,15222,184,4.5,PA,No info,No info,FALSE,No info,True,True,No info,No wifi,No info,1,2,No info,True,TRUE,No info,0,0,1,1,0,1,1,0,0,0,1,2,0,0,0.0,0
